stop_id,stop_name,stop_lat,stop_lon
0003,SAINT PAULS & CHARLOTTE,  36.851549, -76.285418
0006,SAINT PAULS & PLUME,  36.846452, -76.285932
0008,WATERSIDE & COMMERCIAL,  36.844625, -76.289578
0010,MONTICELLO & BRAMBLETON (SCOPE),  36.853284, -76.287934
0011,MONTICELLO & STARKE,  36.854782, -76.287094
0012,MONTICELLO & VIRGINIA BEACH,  36.858526, -76.287067
0013,MONTICELLO & PRINCESS ANNE,  36.860473, -76.286716
0014,MONTICELLO & 15TH,  36.862306, -76.286022
0015,MONTICELLO & 18TH,  36.865171, -76.284842
0016,MONTICELLO & 21ST,  36.866894, -76.284125
0017,26TH & ARMISTEAD,  36.870374, -76.281466
0018,MONTICELLO & 29TH,  36.872881, -76.281420
0020,GRANBY & 33RD,  36.877070, -76.281772
0021,GRANBY & 35TH,  36.878464, -76.281981
0022,GRANBY & 38TH,  36.880177, -76.281963
0023,GRANBY & DELAWARE,  36.882987, -76.281592
0024,GRANBY & 42ND,  36.884970, -76.281295
0027,GRANBY & ARDEN,  36.892716, -76.278712
0028,GRANBY & SEVERN,  36.894786, -76.279072
0030,GRANBY & KINGSLEY,  36.897683, -76.279585
0031,GRANBY & CONWAY,  36.899852, -76.278913
0032,GRANBY & SIR OLIVER,  36.902392, -76.277819
0033,GRANBY & SEEKEL,  36.905833, -76.276329
0034,GRANBY & FORSYTHE,  36.907084, -76.275793
0036,GRANBY & GRANBY PARK,  36.910177, -76.274467
0037,GRANBY & SUBURBAN,  36.912267, -76.273557
0038,GRANBY & LITTLE CREEK,  36.914211, -76.272741
0039,WARDS CORNER TRANSFER,  36.917739, -76.272298
0042,GRANBY & BAYVIEW,  36.934614, -76.264119
0043,GRANBY & WESTMONT,  36.937827, -76.262320
0044,GRANBY & CHESTER,  36.939627, -76.261315
0045,GRANBY & BAY,  36.941428, -76.260372
0046,GRANBY & RANDALL,  36.943412, -76.259704
0047,GRANBY & GILPIN,  36.944748, -76.259306
0048,GRANBY & BATTERSEA,  36.948112, -76.256337
0050,GRANBY & DUPRE,  36.949468, -76.254811
0051,GRANBY & GOVERNMENT,  36.949960, -76.254256
0052,GRANBY & SEAVIEW,  36.951412, -76.252635
0053,DUFFYS & GRANBY,  36.953607, -76.251765
0054,OCEAN VIEW & HAMMETT,  36.951094, -76.247920
0055,OCEAN VIEW & NORFOLK,  36.949835, -76.245845
0056,OCEAN VIEW & CHESAPEAKE ST,  36.947332, -76.240696
0058,OCEAN VIEW & ATLANS,  36.946000, -76.238834
0059,OCEAN VIEW & WARWICK,  36.944830, -76.236879
0060,OCEAN VIEW & BEACH VIEW,  36.944108, -76.235676
0062,OCEAN VIEW & STURGIS,  36.942041, -76.231897
0064,OCEAN VIEW & BEAUMONT,  36.940393, -76.228606
0065,OCEAN VIEW & GROVE,  36.939201, -76.225376
0067,OCEAN VIEW & INLET,  36.937464, -76.220250
0068,OCEAN VIEW & 1ST BAY,  36.936460, -76.217217
0069,OCEAN VIEW & 2ND BAY,  36.935461, -76.214595
0070,OCEAN VIEW & 4TH BAY,  36.934843, -76.212337
0071,OCEAN VIEW & 7TH BAY,  36.933892, -76.208629
0072,OCEAN VIEW & 10TH BAY,  36.933113, -76.205600
0074,OCEAN VIEW & 14TH BAY,  36.931927, -76.201005
0075,OCEAN VIEW & 16TH BAY,  36.931388, -76.198729
0077,OCEAN VIEW & 19TH BAY,  36.930727, -76.194977
0079,SHORE & PLEASANT,  36.928998, -76.191608
0080,SHORE & DUNNING,  36.921090, -76.192663
0081,JOINT EXP BASE LITTLE CREEK,  36.918122, -76.191178
0082,SHORE & FLOWERFIELD,  36.914880, -76.191230
0083,SHORE & HEUTTE,  36.912544, -76.189919
0084,SHORE & DIAMOND SPRINGS,  36.905519, -76.177235
0086,SHORE & LAKE SMITH,  36.906618, -76.172686
0087,SHORE & KIMBALL,  36.907103, -76.169554
0088,SHORE & LAKE SHORES,  36.906801, -76.161363
0089,SHORE & JACK FROST,  36.906886, -76.155726
0090,SHORE & GELA,  36.906302, -76.150714
0092,SHORE & WELLINGS,  36.905568, -76.145225
0093,SHORE & PLEASURE HOUSE (near),  36.904538, -76.137683
0094,PLEASURE HOUSE & VICTORY,  36.901785, -76.136599
0095,PLEASURE HOUSE & FIRST COURT,  36.897829, -76.138231
0096,PLEASURE HOUSE & INDEPENDENCE,  36.894425, -76.141963
0097,INDEPENDENCE & EWELL,  36.884175, -76.134740
0098,INDEPENDENCE & PAUL REVERE,  36.879789, -76.133334
0099,INDEPENDENCE & HAYGOOD,  36.874325, -76.134715
0101,INDEPENDENCE & WITCHDUCK,  36.867917, -76.133031
0102,INDEPENDENCE & PEMBROKE (near side),  36.863657, -76.132309
0103,INDEPENDENCE & JERICHO,  36.855420, -76.135008
0104,INDEPENDENCE & HINSDALE (far side),  36.851439, -76.136786
0105,INDEPENDENCE & JEANNE,  36.847922, -76.136920
0106,CORPORATION & CONSTITUTION,  36.847022, -76.129759
0107,SHORE & WINDWARD,  36.903957, -76.131464
0108,NIMMO & UPTON,  36.761450, -76.006788
0109,ELSON GREEN & UPTON,  36.756522, -76.008031
0110,INDEPENDENCE & BROAD,  36.845897, -76.136516
0111,INDEPENDENCE & JEANNE,  36.848502, -76.136456
0112,INDEPENDENCE & CONSTITUTION,  36.855842, -76.134337
0113,INDEPENDENCE & HESSIAN,  36.858140, -76.133317
0114,INDEPENDENCE & PEMBROKE (mdblk),  36.863763, -76.131852
0115,INDEPENDENCE & WITCHDUCK (mdblk),  36.867784, -76.132700
0116,INDEPENDENCE & WISHART,  36.875222, -76.134300
0117,INDEPENDENCE & WAKEFIELD,  36.880604, -76.132937
0118,INDEPENDENCE & FIVE FORKS,  36.888059, -76.136686
0120,INDEPENDENCE & SMOKEY,  36.892718, -76.139921
0121,PLEASURE HOUSE & ANDREW JACKSON,  36.894915, -76.141174
0122,SHORE & GELA,  36.906458, -76.150441
0123,SHORE & JACK FROST,  36.907174, -76.155949
0124,SHORE & LAKE SHORES,  36.907077, -76.162429
0125,SHORE & KIMBALL,  36.907361, -76.170241
0126,SHORE & LAKE SMITH,  36.906904, -76.172561
0127,SHORE & DIAMOND SPRINGS,  36.905767, -76.178925
0128,SHORE & FLOWERFIELD,  36.915169, -76.191105
0129,SHORE & DUNNING,  36.920870, -76.192389
0132,OCEAN VIEW & 18TH BAY,  36.931061, -76.196192
0133,OCEAN VIEW & 16TH BAY,  36.931477, -76.198664
0135,OCEAN VIEW & 12TH BAY,  36.932569, -76.203077
0136,OCEAN VIEW & 10TH BAY,  36.933158, -76.205345
0137,OCEAN VIEW & 9TH BAY,  36.933568, -76.206962
0138,OCEAN VIEW & 6TH BAY,  36.934439, -76.210354
0139,OCEAN VIEW & 1ST BAY (mdblk),  36.936544, -76.217136
0140,OCEAN VIEW & CAPEVIEW,  36.937822, -76.220979
0141,OCEAN VIEW & GROVE,  36.939381, -76.225573
0143,OCEAN VIEW & WILLOW,  36.941484, -76.230514
0145,OCEAN VIEW & BEACH VIEW 1,  36.943167, -76.233852
0147,OCEAN VIEW & ATLANS,  36.946248, -76.238969
0148,OCEAN VIEW & CHESAPEAKE BLVD,  36.949210, -76.243221
0149,OCEAN VIEW & NORFOLK,  36.950132, -76.246141
0151,FIRST VIEW & DUPRE,  36.951452, -76.258186
0153,FIRST VIEW & MAPLE,  36.949578, -76.260186
0156,FIRST VIEW & GOVERNMENT,  36.952024, -76.257625
0157,FIRST VIEW & D VIEW,  36.952857, -76.256789
0159,GRANBY & SEAVIEW,  36.951713, -76.252814
0160,GRANBY & GOVERNMENT,  36.950183, -76.254526
0161,GRANBY & CHERRY,  36.949120, -76.255732
0162,GRANBY & LEICESTER,  36.943015, -76.260167
0163,GRANBY & OCEAN,  36.942518, -76.260333
0164,GRANBY & CHESTER,  36.939572, -76.261724
0165,GRANBY & WESTMONT,  36.937639, -76.262808
0166,GRANBY & EVANS,  36.934890, -76.264350
0167,GRANBY & I-64 EAST,  36.925114, -76.269036
0168,GRANBY & CEMETARY,  36.922194, -76.269823
0169,GRANBY & LITTLE CREEK,  36.915562, -76.272732
0170,GRANBY & NORTH SHORE,  36.912690, -76.273695
0171,GRANBY & WARREN,  36.908971, -76.275300
0173,GRANBY & THOLE,  36.906368, -76.276426
0174,GRANBY & BRACKENRIDGE,  36.904766, -76.277117
0175,GRANBY & OAK GROVE,  36.903011, -76.277880
0176,GRANBY & TALBOT HALL,  36.901512, -76.278532
0177,GRANBY & WHITING,  36.900586, -76.278929
0178,GRANBY & KINGSLEY,  36.897906, -76.279887
0179,GRANBY & BELVEDERE,  36.895324, -76.279483
0180,GRANBY & ARDEN,  36.892887, -76.279052
0181,GRANBY & WILLOW WOOD,  36.890626, -76.279180
0182,GRANBY & 42ND,  36.885567, -76.281455
0183,GRANBY & 37TH,  36.880070, -76.282239
0184,GRANBY & 35TH,  36.878639, -76.282239
0185,GRANBY & 33RD,  36.876840, -76.281953
0186,GRANBY & MONTICELLO,  36.873794, -76.281311
0187,MONTICELLO & 29TH,  36.872853, -76.281492
0188,MONTICELLO & 25TH,  36.870229, -76.282790
0189,MONTICELLO & 19TH,  36.866128, -76.284582
0190,MONTICELLO & 18TH,  36.864740, -76.285159
0191,MONTICELLO & 15TH,  36.862431, -76.286122
0192,MONTICELLO & PRINCESS ANNE,  36.860250, -76.286986
0194,MONTICELLO & VIRGINIA BEACH,  36.857609, -76.286862
0195,MONTICELLO & STARKE,  36.855119, -76.287057
0197,WOODLAKE & OLD GREENBRIAR,  36.790502, -76.235280
0198,OLD GREENBRIAR & JUNIPER,  36.794453, -76.234589
0199,OLD GREENBRIAR & JUNIPER,  36.794141, -76.234475
0203,OLNEY & COLONIAL,  36.858805, -76.296391
0204,OLNEY & STOCKLEY GARDENS,  36.859818, -76.298497
0205,OLNEY & NORFOLK GENERAL,  36.861623, -76.302489
0208,HAMPTON & GRAYDON,  36.865750, -76.301135
0209,HAMPTON & PRINCESS ANNE,  36.866635, -76.300449
0211,HAMPTON & SPOTSWOOD,  36.869029, -76.300657
0212,HAMPTON & GATES,  36.870389, -76.300980
0213,HAMPTON & 25TH,  36.875442, -76.301819
0214,HAMPTON & 27TH,  36.877077, -76.301918
0216,HAMPTON & 37TH,  36.878857, -76.302017
0217,HAMPTON & 39TH,  36.880911, -76.302125
0219,HAMPTON & 45TH,  36.884354, -76.302323
0220,HAMPTON & 46TH,  36.885859, -76.302416
0221,HAMPTON & 48TH,  36.887229, -76.302516
0222,HAMPTON & BOLLING,  36.891152, -76.303799
0223,HAMPTON & ROCKBRIDGE,  36.894316, -76.303149
0224,HAMPTON & MAGNOLIA,  36.895436, -76.302762
0225,HAMPTON & SURRY,  36.896809, -76.302703
0226,HAMPTON & BEDFORD,  36.899700, -76.303034
0227,HAMPTON & ESCADRILLE,  36.901952, -76.303742
0228,HAMPTON & HELENA,  36.910131, -76.305609
0229,HAMPTON & LITTLE CREEK,  36.915504, -76.307766
0230,HAMPTON & DANIEL,  36.916510, -76.308808
0231,HAMPTON & STAFF COLLEGE,  36.919918, -76.312443
0233,HAMPTON & BAKER,  36.923410, -76.316007
0234,HAMPTON & FORREST,  36.928032, -76.317516
0235,HAMPTON & BEECHWOOD,  36.929474, -76.317649
0239,HAMMOND & ADMIRAL TAUSSIG (Naval Exchange),  36.943332, -76.312051
0240,HAMPTON & B,  36.936458, -76.318540
0241,HAMPTON & D,  36.933651, -76.318312
0243,HAMPTON & MAPLESHADE,  36.930416, -76.318050
0245,HAMPTON & GLENDALE,  36.927636, -76.317767
0246,HAMPTON & HELMICK,  36.925429, -76.317440
0248,HAMPTON & BAKER,  36.922984, -76.316135
0250,HAMPTON & STAFF COLLEGE,  36.919166, -76.312013
0252,HAMPTON & LITTLE CREEK,  36.915740, -76.308324
0253,HAMPTON & RUNNYMEDE,  36.914096, -76.306979
0254,HAMPTON & NORTH SHORE,  36.910869, -76.305971
0255,HAMPTON & HELENA,  36.909784, -76.305872
0256,HAMPTON & LEXAN,  36.900518, -76.303677
0257,HAMPTON & MANCHESTER,  36.899100, -76.303222
0258,HAMPTON & SURREY,  36.896498, -76.303065
0259,HAMPTON & ROCKBRIDGE,  36.894584, -76.303432
0260,HAMPTON & BRUNSWICK,  36.892235, -76.304123
0261,HAMPTON & BOLLING,  36.890780, -76.303905
0262,HAMPTON & 48TH,  36.887116, -76.302766
0263,HAMPTON & 47TH,  36.886340, -76.302699
0264,HAMPTON & 45TH,  36.884918, -76.302624
0265,HAMPTON & 43RD,  36.882850, -76.302520
0266,HAMPTON & 41ST,  36.881507, -76.302395
0267,HAMPTON & 25TH,  36.875684, -76.302013
0268,HAMPTON & WOODROW,  36.871449, -76.301366
0269,HAMPTON & MAURY,  36.867355, -76.300490
0272,REDGATE & COLLEY,  36.864004, -76.301381
0275,OLNEY & MOWBRAY ARCH 1,  36.859485, -76.298028
0276,OLNEY & MOWBRAY ARCH 2,  36.857370, -76.293364
0281,HAMPTON & SPOTSWOOD,  36.869181, -76.300854
0282,ELSON GREEN & UPTON,  36.756511, -76.008284
0283,NIMMO & UPTON,  36.762298, -76.008278
0284,FIRST VIEW & BALVIEW,  36.954345, -76.255470
0285,26TH & FAWN,  36.870150, -76.279041
0286,26TH & GAZEL,  36.870364, -76.277742
0288,26TH & RUFFIN,  36.871423, -76.275765
0289,26TH & VILLA,  36.872774, -76.273540
0290,LAFAYETTE & DUPONT 1,  36.874198, -76.271153
0291,LAFAYETTE & DUPONT 2,  36.874937, -76.269691
0292,LAFAYETTE & BELLEVUE (midblk before Lorraine),  36.877739, -76.267095
0293,LAFAYETTE & LORRAINE,  36.878083, -76.265498
0294,LAFAYETTE & TIDEWATER,  36.877659, -76.263729
0296,LAFAYETTE & DUNKIRK,  36.877116, -76.261454
0297,LAFAYETTE & SAINT MIHIEL,  36.876423, -76.258704
0298,Lafayette / Marne,  36.875560, -76.255102
0300,CHESAPEAKE & CROMWELL 1,  36.875532, -76.252505
0301,CHESAPEAKE & CROMWELL 2,  36.876491, -76.251606
0302,CHESAPEAKE & ROBINHOOD,  36.878513, -76.249594
0303,CHESAPEAKE & CURIE,  36.897673, -76.238610
0304,CHESAPEAKE & BUCKINGHAM,  36.881263, -76.247306
0305,CHESAPEAKE & MONTGOMERY,  36.882616, -76.246657
0306,CHESAPEAKE & LENOIR,  36.886099, -76.243725
0307,CHESAPEAKE & ESSEX,  36.887606, -76.241761
0308,CHESAPEAKE & HYDE,  36.888536, -76.240468
0309,CHESAPEAKE & NORVIEW,  36.889356, -76.239089
0310,CHESAPEAKE & GREEN,  36.891487, -76.237634
0311,CHESAPEAKE & STRAND,  36.893848, -76.238004
0312,CHESAPEAKE & DUNDALE,  36.899774, -76.238963
0313,CHESAPEAKE & I-64,  36.905241, -76.239796
0315,CHESAPEAKE & ROSEFIELD,  36.911236, -76.240808
0317,EVELYN BUTTS & AVENUE J,  36.914178, -76.243515
0318,CHESAPEAKE & LITTLE CREEK,  36.915108, -76.241407
0319,CHESAPEAKE & ELK,  36.917781, -76.241824
0320,CHESAPEAKE & BURKSDALE,  36.920263, -76.242208
0321,CHESAPEAKE & WINSTON,  36.921936, -76.242463
0322,CHESAPEAKE & SHEPPARD,  36.923785, -76.242754
0323,CHESAPEAKE & FRANK,  36.926403, -76.243155
0324,CHESAPEAKE & FISHERMANS,  36.930255, -76.243755
0326,CHESAPEAKE & BAYVIEW,  36.933741, -76.244305
0327,CHESAPEAKE & EARL,  36.935615, -76.244595
0328,CHESAPEAKE & DUNE,  36.936851, -76.244790
0330,CHESAPEAKE & CHESTER,  36.939305, -76.245163
0331,CHESAPEAKE & WARWICK,  36.940536, -76.245342
0332,CHESAPEAKE & DUDLEY,  36.942999, -76.245683
0335,CHESAPEAKE & BUCKINGHAM,  36.881207, -76.247657
0336,HAMPTON & RUNNYMEDE,  36.913999, -76.306633
0343,CHESAPEAKE & LEICESTER,  36.941922, -76.245838
0344,CHESAPEAKE & FARRELL,  36.938973, -76.245354
0346,CHESAPEAKE & EARL,  36.935741, -76.244892
0347,CHESAPEAKE & BAYVIEW,  36.934052, -76.244611
0348,CHESAPEAKE & FISHERMANS (mdblk bet Bayview & Fish),  36.931674, -76.244260
0349,CHESAPEAKE & SHEPPARD,  36.923972, -76.243073
0351,CHESAPEAKE & BURKSDALE (far),  36.919663, -76.242411
0352,CHESAPEAKE & DOVERCOURT,  36.916808, -76.241952
0353,CHESAPEAKE & LITTLE CREEK,  36.915022, -76.241663
0354,EVELYN BUTTS & AVENUE J,  36.914170, -76.243632
0355,CHESAPEAKE & AVE I,  36.912666, -76.241292
0357,CHESAPEAKE & JOHNSTONS,  36.907591, -76.240420
0359,CHESAPEAKE & KITRELL,  36.905194, -76.240054
0360,CHESAPEAKE & DUNDALE (NHS),  36.899743, -76.239214
0362,CHESAPEAKE & PICADILLY (NES),  36.896799, -76.238710
0363,CHESAPEAKE & STRAND,  36.894093, -76.238278
0364,CHESAPEAKE & GREEN,  36.891657, -76.237902
0365,CHESAPEAKE & NORVIEW (5 pts),  36.889475, -76.239288
0366,CHESAPEAKE & HYDE,  36.888892, -76.240252
0367,CHESAPEAKE & CRAVEN,  36.888008, -76.241582
0368,CHESAPEAKE & NANSEMOND,  36.885522, -76.244597
0369,CHESAPEAKE & WAYNE,  36.884925, -76.245128
0370,CHESAPEAKE & NORLAND,  36.883105, -76.246653
0371,CHESAPEAKE & NOTTAWAY,  36.879949, -76.248532
0372,CHESAPEAKE & ROBIN HOOD,  36.878770, -76.249682
0373,CHESAPEAKE & CROMWELL (before RR),  36.877218, -76.251217
0374,CHESAPEAKE & FLANDERS,  36.875564, -76.253019
0375,LAFAYETTE & MARNE,  36.875632, -76.254840
0376,LAFAYETTE & LENS,  36.876016, -76.256543
0377,LAFAYETTE & BREST,  36.876483, -76.258449
0378,LAFAYETTE & DUNKIRK,  36.877208, -76.261273
0379,LAFAYETTE & SOMME,  36.877491, -76.262507
0380,LAFAYETTE & TIDEWATER,  36.877843, -76.263888
0381,LAFAYETTE & RACINE,  36.878155, -76.265100
0382,LAFAYETTE & VERSAILLES,  36.877518, -76.267413
0383,LAFAYETTE & DEGRASSE,  36.876288, -76.267897
0384,LAFAYETTE & ORLEANS,  36.875155, -76.269596
0385,LAFAYETTE & ORLEANS 2,  36.874421, -76.271033
0386,26TH & LEO,  36.870809, -76.276573
0387,27TH & LEO,  36.871511, -76.276488
0388,27TH & GAZEL,  36.871356, -76.277627
0389,27TH & FAWN,  36.871141, -76.278848
0390,MONTICELLO & 26TH,  36.870869, -76.282361
0403,GOFF & TIDEWATER,  36.858487, -76.272944
0404,SAINT PAULS & WOOD,  36.851350, -76.285047
0406,CHURCH & OLNEY,  36.854003, -76.279732
0408,CHAPEL & PRINCESS ANNE,  36.856755, -76.275204
0409,TIDEWATER & PRINCESS ANNE,  36.857126, -76.273176
0410,GOFF & OKEEFE,  36.859581, -76.276010
0411,CHURCH & LEXINGTON,  36.861911, -76.278376
0412,CHURCH & B,  36.863828, -76.278734
0413,20TH & GRANBY,  36.866708, -76.285177
0414,21ST & OMOHUNDRO,  36.868094, -76.287164
0415,21ST & LLEWELLYN,  36.868482, -76.288654
0416,21ST & DEBREE,  36.868781, -76.290355
0417,21ST & MANTEO,  36.870058, -76.294175
0418,21ST & CORE,  36.871661, -76.297862
0419,21ST & HAMPTON,  36.873013, -76.300682
0421,38TH & BLUESTONE,  36.879616, -76.305278
0425,COLLEY & 41ST,  36.882334, -76.294902
0426,COLLEY & 39TH,  36.880906, -76.294827
0427,COLLEY & 35TH,  36.877948, -76.294886
0428,COLLEY & 27TH,  36.875476, -76.295163
0430,COLLEY & GRAYDON,  36.865266, -76.299556
0431,COLLEY & RALEIGH,  36.862209, -76.300035
0432,COLLEY & RALEIGH,  36.862115, -76.299676
0433,COLLEY & GRAYDON,  36.865031, -76.299475
0434,COLLEY & SHIRLEY,  36.867723, -76.297922
0436,27TH & COLLEY,  36.875119, -76.294776
0437,COLLEY & 35TH,  36.878176, -76.294687
0441,38TH & BOWDENS FERRY,  36.879582, -76.303610
0442,21ST & COLLEY,  36.871025, -76.296489
0443,21ST & COLONIAL,  36.869383, -76.292888
0444,21ST & DEBREE,  36.868622, -76.289959
0445,21ST & LLEWELLYN,  36.868083, -76.287469
0447,20TH & MONTICELLO,  36.866561, -76.284993
0448,CHURCH & 18TH,  36.863981, -76.279020
0449,GOFF & MIDRISE,  36.858465, -76.274964
0450,CHAPEL & PRINCESS ANNE,  36.856790, -76.275312
0452,CHURCH & OLNEY,  36.853969, -76.280007
0453,INDIAN RIVER & WINGFIELD,  36.827164, -76.246265
0454,WOOD & CHURCH,  36.851556, -76.282577
0455,BRAMBLETON & SAINT PAULS,  36.853722, -76.285046
0460,STATE & CLIFTON,  36.834279, -76.284937
0461,STATE & INDIAN RIVER,  36.835996, -76.285814
0462,MAIN & INDIAN RIVER,  36.834881, -76.282329
0463,MAIN & POPLAR,  36.834186, -76.282647
0465,MAIN & LIBERTY,  36.832249, -76.283510
0467,LIBERTY & GRAYSON,  36.829877, -76.281573
0468,LIBERTY & LANCASTER,  36.828914, -76.280607
0469,LIBERTY & SHERMAN,  36.826339, -76.278112
0470,LIBERTY & HALIFAX,  36.825442, -76.277448
0471,LIBERTY & 20TH,  36.822617, -76.274804
0473,SEABOARD & LIBERTY,  36.820082, -76.271275
0474,LIBERTY & HOOVER,  36.818194, -76.268615
0475,OLD ATLANTIC & JEFFERSON,  36.814926, -76.265479
0476,ATLANTIC & CULPEPPER,  36.811691, -76.264870
0477,ATLANTIC & MYERS,  36.807362, -76.264020
0478,ATLANTIC & STRAWBERRY,  36.804634, -76.263469
0479,BROAD & CAMPOSTELLA,  36.799165, -76.258231
0480,CAMPOSTELLA & HEMPLE,  36.794594, -76.259392
0482,CAMPOSTELLA & PORTLOCK,  36.785170, -76.266549
0483,CAMPOSTELLA & CORAL,  36.781867, -76.268248
0485,MILITARY & CAMPOSTELLA,  36.778611, -76.266517
0488,ROBERT HALL & MILITARY,  36.786457, -76.255981
0489,ROBERT HALL & BATTLEFIELD,  36.787355, -76.257792
0490,MILITARY & BATTLEFIELD,  36.781468, -76.261887
0491,MILITARY & CAMPOSTELLA,  36.778872, -76.266482
0492,CAMPOSTELLA & WAKE,  36.780079, -76.268247
0493,CAMPOSTELLA & PORTLOCK,  36.785298, -76.266347
0494,CAMPOSTELLA & DIAMOND HILL,  36.788609, -76.263609
0495,CAMPOSTELLA & HEMPLE,  36.794393, -76.259353
0496,CAMPOSTELLA & PROVIDENCE,  36.798555, -76.257464
0497,BROAD & CAMPOSTELLA,  36.799397, -76.259360
0498,ATLANTIC & STRAWBERRY,  36.804845, -76.263298
0499,ATLANTIC & MYERS,  36.807548, -76.263847
0500,ATLANTIC & POCAHONTAS,  36.809514, -76.264227
0501,ATLANTIC & CULPEPPER,  36.811525, -76.264636
0502,OLD ATLANTIC & JEFFERSON,  36.815759, -76.265529
0503,LIBERTY & FITCHETT,  36.817714, -76.267061
0504,LIBERTY & COMMERCE,  36.818815, -76.269752
0505,LIBERTY & POINDEXTER,  36.819843, -76.271665
0506,LIBERTY & 20TH,  36.822535, -76.274570
0507,LIBERTY & SEABOARD,  36.824120, -76.276138
0508,LIBERTY & SHERMAN,  36.825891, -76.277650
0509,LIBERTY & CRAIG,  36.827446, -76.278978
0510,LIBERTY & GRAYSON,  36.829936, -76.281482
0511,MAIN & BERKLEY,  36.832272, -76.283308
0513,MAIN & INDIAN RIVER,  36.835340, -76.281966
0514,INDIAN RIVER & STATE,  36.836109, -76.285808
0515,STATE & CLIFTON,  36.834661, -76.285268
0516,OBERNDORFER & HALIFAX,  36.826307, -76.276008
0517,OBERNDORFER & HALIFAX,  36.826275, -76.276173
0519,BERKLEY & CRAIG,  36.829059, -76.277339
0520,TIDEWATER & BRAMBLETON,  36.851479, -76.275707
0521,TIDEWATER & OLNEY,  36.852680, -76.275170
0524,TIDEWATER & GOFF,  36.858720, -76.272459
0527,TIDEWATER & LINDENWOOD,  36.866655, -76.268913
0528,TIDEWATER & HANCOCK,  36.870769, -76.266076
0529,TIDEWATER & SHOOP,  36.872026, -76.265574
0530,TIDEWATER & SAINT DENIS,  36.874630, -76.264617
0533,TIDEWATER & LAFAYETTE,  36.878222, -76.263292
0535,TIDEWATER & ALSACE,  36.883496, -76.261229
0536,TIDEWATER & CROMWELL,  36.885228, -76.260575
0537,TIDEWATER & WILLOW WOOD,  36.887796, -76.259668
0538,TIDEWATER & NORVIEW,  36.890851, -76.258510
0539,TIDEWATER & WIDGEON,  36.901506, -76.256375
0540,TIDEWATER & LITTLE CREEK,  36.912707, -76.255062
0541,LITTLE CREEK & HAROLD,  36.915665, -76.252574
0542,LITTLE CREEK & SEWELLS POINT,  36.915150, -76.250013
0543,LITTLE CREEK & MERRITT,  36.914900, -76.246169
0546,LITTLE CREEK & MOOSE,  36.915680, -76.236460
0548,LITTLE CREEK & BISON,  36.916639, -76.232455
0550,LITTLE CREEK & LISA,  36.916495, -76.227734
0551,LITTLE CREEK & WEDGEWOOD 1,  36.916078, -76.225926
0553,LITTLE CREEK & WILDWOOD,  36.915333, -76.222914
0554,LITTLE CREEK & HALPRIN,  36.915013, -76.220314
0555,LITTLE CREEK & BROOKFIELD,  36.915040, -76.213731
0556,LITTLE CREEK &  TARPON,  36.915776, -76.209365
0557,LITTLE CREEK & NANCY,  36.916518, -76.205414
0559,LITTLE CREEK & REDMON,  36.917662, -76.199263
0561,LITTLE CREEK & SHORE,  36.917950, -76.195085
0562,CULPEPPER & MAHONE,  36.829202, -76.278695
0563,CULPEPPER & WALKER,  36.828853, -76.278892
0564,CULPEPPER & BERKLEY,  36.829454, -76.277997
0565,LITTLE CREEK & SHORE,  36.918132, -76.194840
0566,LITTLE CREEK & WOODALL,  36.918100, -76.196985
0567,LITTLE CREEK & WALTERS,  36.917175, -76.203208
0568,LITTLE CREEK & NANCY,  36.916483, -76.206846
0569,LITTLE CREEK & TARPON,  36.915947, -76.209695
0570,LITTLE CREEK & AZALEA GARDEN,  36.915416, -76.212318
0571,LITTLE CREEK & MONA,  36.915241, -76.215629
0572,LITTLE CREEK & HALPRIN 1,  36.915231, -76.218342
0573,LITTLE CREEK & WILDWOOD,  36.915571, -76.223013
0574,LITTLE CREEK & WEDGEWOOD PLAZA,  36.916278, -76.225846
0576,LITTLE CREEK & MEADOW CREEK,  36.916949, -76.229603
0577,LITTLE CREEK & BISON,  36.916833, -76.231724
0579,LITTLE CREEK & MOOSE,  36.915819, -76.236278
0581,LITTLE CREEK & ELTON,  36.915387, -76.249231
0582,LITTLE CREEK RD & OLD OCEAN VIEW,  36.915717, -76.251575
0583,TIDEWATER & LITTLE CREEK,  36.915240, -76.254449
0584,TIDEWATER & BILTMORE,  36.909776, -76.256264
0585,TIDEWATER & THOLE,  36.903089, -76.256674
0586,TIDEWATER & WIDGEON,  36.900943, -76.256399
0587,TIDEWATER & WAUKESHA,  36.894758, -76.257205
0589,TIDEWATER & NORVIEW,  36.891055, -76.258539
0590,TIDEWATER & WILLOWWOOD,  36.887821, -76.259783
0591,TIDEWATER & BAPAUME,  36.885015, -76.260783
0593,TIDEWATER & CLARK,  36.880267, -76.262599
0594,TIDEWATER & LAFAYETTE,  36.877133, -76.263806
0595,TIDEWATER & BELLEVUE,  36.876107, -76.264202
0597,TIDEWATER & SHOOP,  36.871878, -76.265750
0598,TIDEWATER & HANCOCK,  36.869238, -76.267455
0600,TIDEWATER & LINDENWOOD,  36.866448, -76.269144
0601,TIDEWATER & GOFF,  36.858298, -76.272851
0602,TIDEWATER & PRINCESS ANNE,  36.856024, -76.273909
0603,TIDEWATER & ROSWELL,  36.852450, -76.275525
0604,TIDEWATER & CHARLOTTE,  36.847786, -76.277415
0605,OCEAN VIEW & 8TH VIEW,  36.965177, -76.272444
0606,OCEAN VIEW & 7TH VIEW,  36.963872, -76.268233
0607,OCEAN VIEW & 6TH VIEW,  36.962719, -76.265829
0608,OCEAN VIEW & 4TH VIEW,  36.959578, -76.261023
0609,OCEAN VIEW & MASON CREEK,  36.957773, -76.256383
0610,OCEAN VIEW & FIRST VIEW,  36.956320, -76.254101
0611,BRAMBLETON & POSEY,  36.853626, -76.283234
0612,BRAMBLETON & LINCOLN,  36.853333, -76.281234
0613,BRAMBLETON & CHURCH,  36.852960, -76.280049
0614,BRAMBLETON & TIDEWATER,  36.851403, -76.277726
0615,PARK & PRESIDENTIAL,  36.847049, -76.269992
0616,PARK & BOND,  36.849154, -76.267961
0617,CORPREW & MARATHON,  36.850476, -76.262866
0618,CORPREW & PRESIDENTIAL,  36.850458, -76.261020
0619,CORPREW & OAKLAWN,  36.850440, -76.259223
0620,CORPREW & MAJESTIC,  36.850476, -76.257095
0621,CORPREW & WOLFERTON,  36.850260, -76.249666
0622,BALLENTINE & MIDDLE TOWNE,  36.847994, -76.251562
0623,TIDEWATER & TWILLEY,  36.939270, -76.254864
0625,TIDEWATER & BECK,  36.937256, -76.254523
0626,SEWELLS POINT & DENVER,  36.872586, -76.232278
0627,KIMBALL & FORBES,  36.843083, -76.260372
0628,KIMBALL & MAJESTIC,  36.842765, -76.257904
0629,KIMBALL & NORCHESTER,  36.842352, -76.255332
0630,KIMBALL & BALLENTINE,  36.842173, -76.253677
0633,CENTER & NEWTOWN,  36.847370, -76.183809
0634,SCOTT & VIRGINIA BEACH,  36.853603, -76.242076
0635,GATLING & TRICI,  36.849958, -76.239942
0636,VIRGINIA BEACH & INGLESIDE,  36.854465, -76.238901
0637,VIRGINIA BEACH & KINGWOOD,  36.855161, -76.235476
0638,VIRGINIA BEACH & AZALEA GARDEN,  36.855739, -76.232443
0639,AZALEA GARDEN & VIRGINIA BEACH,  36.857086, -76.232588
0640,AZALEA GARDEN & VILLAGE,  36.862403, -76.234326
0641,AZALEA GARDEN & PRINCESS ANNE,  36.866448, -76.234950
0642,AZALEA GARDEN & EARLY,  36.868884, -76.233401
0643,SEWELLS POINT & LARKIN,  36.873631, -76.232449
0644,SEWELLS POINT & BRUCE,  36.874956, -76.232655
0645,SEWELLS POINT & LITTLE JOHN,  36.878691, -76.233286
0646,SEWELLS POINT & DOLPHIN,  36.880698, -76.233626
0647,SEWELLS POINT & NORVIEW,  36.889230, -76.238280
0649,SEWELLS POINT & PARTRIDGE,  36.895161, -76.239725
0650,SEWELLS POINT & QUAIL,  36.896969, -76.241077
0651,SEWELLS POINT & PHILPOTTS,  36.898919, -76.242228
0652,PHILPOTTS & PALEM,  36.899000, -76.243602
0653,PHILPOTTS & PARTRIDGE,  36.898980, -76.246145
0654,PHILPOTTS & PIERCE,  36.898737, -76.248847
0656,WIDGEON & WHITEHORN,  36.901873, -76.254551
0657,WIDGEON & PUGH,  36.902304, -76.250543
0658,WIDGEON & THAXTON,  36.902330, -76.247453
0659,WIDGEON & MINNIE,  36.902367, -76.244938
0660,SEWELLS POINT & KITTREL,  36.904512, -76.242883
0661,SEWELLS POINT & KANE,  36.906651, -76.243856
0662,SEWELLS POINT & AVENUE E,  36.908286, -76.244700
0663,SEWELLS POINT & AVENUE H,  36.911385, -76.246287
0664,SEWELLS POINT & AVENUE I,  36.913257, -76.247758
0665,SEWELLS POINT & AVENUE I,  36.912481, -76.247117
0666,SEWELLS POINT & DENISON,  36.910086, -76.245751
0667,SEWELLS POINT & AVENUE E,  36.907861, -76.244610
0668,SEWELLS POINT & KENNEDY,  36.905744, -76.243510
0669,SEWELLS POINT & KITTRELL,  36.904492, -76.243000
0670,WIDGEON & MINNIE,  36.902467, -76.244716
0671,WIDGEON & THAXTON,  36.902425, -76.247225
0672,WIDGEON & PUGH,  36.902401, -76.250544
0673,WIDGEON & WHITEHORN,  36.901968, -76.254532
0675,SEWELLS POINT & QUAIL,  36.897063, -76.241318
0676,SEWELLS POINT & GREENWOOD,  36.893025, -76.239043
0677,SEWELLS POINT & CHESAPEAKE,  36.889074, -76.238374
0678,SEWELLS POINT & HAMPSHIRE,  36.887597, -76.237358
0679,SEWELLS POINT & TEXAS,  36.884863, -76.235412
0680,SEWELLS POINT & WINDERMERE,  36.883920, -76.234749
0681,SEWELLS POINT & KENNEBECK,  36.881493, -76.233911
0682,SEWELLS POINT & ATTERBURY,  36.876681, -76.233072
0683,SEWELLS POINT & WOOLSEY,  36.875292, -76.232844
0684,AZALEA GARDEN & EARLY,  36.869114, -76.233432
0685,AZALEA GARDEN & PRINCESS ANNE,  36.866059, -76.235287
0686,AZALEA GARDEN & VILLAGE,  36.861173, -76.233783
0687,AZALEA GARDEN & VIRGINIA BEACH,  36.856437, -76.232559
0688,VIRGINIA BEACH & AZALEA GARDEN 2,  36.855759, -76.233766
0689,VIRGINIA BEACH & KINGWOOD,  36.855264, -76.236557
0690,VIRGINIA BEACH & INGLESIDE,  36.854671, -76.239604
0691,GATLING & WAKEFIELD,  36.849903, -76.238027
0692,BALLENTINE & CONNECTOR,  36.851846, -76.247850
0693,OCEAN VIEW & 11TH VIEW,  36.967211, -76.281204
0694,OCEAN VIEW & 12TH VIEW,  36.967262, -76.284362
0695,OCEAN VIEW & RICHVIEW,  36.967224, -76.289850
0696,OCEAN VIEW & 15TH VIEW,  36.967207, -76.293526
0698,KIMBALL & NORCHESTER,  36.842606, -76.256282
0699,KIMBALL & MAJESTIC,  36.842816, -76.257656
0700,KIMBALL & FORBES,  36.843203, -76.260675
0702,WIDGEON & GREGORY,  36.902411, -76.242771
0703,CORPREW & BALLENTINE,  36.850233, -76.249414
0704,CORPREW & MERRIMAC,  36.850653, -76.253121
0705,CORPREW & NORCHESTER,  36.850608, -76.255502
0706,CORPREW & MAJESTIC,  36.850556, -76.257681
0707,CORPREW & OAKLAWN,  36.850538, -76.258905
0709,CORPREW & COVENANT,  36.850572, -76.263683
0711,PARK & BOND,  36.849246, -76.268203
0712,PARK & OLNEY,  36.847930, -76.269374
0713,BRAMBLETON & MARSHALL,  36.847100, -76.271385
0717,SEWELLS POINT & NORVELLA,  36.886429, -76.236527
0718,CHAPEL & VIRGINIA BEACH,  36.855447, -76.276046
0719,OCEAN VIEW & MASON CREEK,  36.958196, -76.256696
0720,COLONIAL & BOISSEVAIN,  36.859555, -76.296099
0721,COLONIAL & GRAYDON,  36.862788, -76.294505
0722,COLONIAL & PRINCESS ANNE,  36.863772, -76.293992
0724,COLONIAL & SPOTSWOOD,  36.866563, -76.292795
0725,COLONIAL & WASHINGTON,  36.867244, -76.292498
0726,COLONIAL & 25TH,  36.872124, -76.290427
0727,COLONIAL & 27TH,  36.873533, -76.289816
0728,COLONIAL & 29TH,  36.874930, -76.289164
0729,COLONIAL & 30TH,  36.875613, -76.288842
0730,COLONIAL & 31ST,  36.876287, -76.288516
0731,COLONIAL & 35TH,  36.878100, -76.288459
0732,NEWPORT & 37TH,  36.879414, -76.290476
0733,NEWPORT & GEORGIA,  36.880645, -76.290136
0734,NEWPORT & VIRGINIA,  36.882139, -76.289639
0735,NEWPORT & PENNSYLVANIA,  36.883596, -76.289110
0736,NEWPORT & NEW JERSEY,  36.885330, -76.288572
0737,NEWPORT & CONNECTICUT,  36.886576, -76.288074
0738,NEWPORT & CONNECTICUT,  36.886810, -76.288242
0739,NEWPORT & NEW JERSEY,  36.885328, -76.288747
0741,NEWPORT & PENNSYLVANIA,  36.883821, -76.289249
0742,NEWPORT & MARYLAND,  36.883095, -76.289500
0743,NEWPORT & VIRGINIA,  36.882344, -76.289751
0744,NEWPORT & GEORGIA,  36.880862, -76.290266
0745,NEWPORT & 37TH,  36.879637, -76.290609
0747,NEWPORT & 35TH,  36.878185, -76.290505
0748,35TH & COLONIAL,  36.878133, -76.288636
0749,COLONIAL & 31ST,  36.876520, -76.288624
0750,COLONIAL & 30TH,  36.875436, -76.289121
0751,COLONIAL & 26TH,  36.873036, -76.290197
0752,COLONIAL & 25TH,  36.872336, -76.290518
0753,COLONIAL & 21ST,  36.868644, -76.292144
0754,COLONIAL & SPOTSWOOD,  36.866802, -76.292939
0755,COLONIAL & PRINCESS ANNE,  36.863686, -76.294225
0756,COLONIAL & BOISSEVAIN,  36.859771, -76.296153
0757,COLONIAL & 26TH,  36.872838, -76.290168
0758,INDIAN RIVER & OAKWOOD,  36.831243, -76.259198
0759,SEWELLS POINT & STRAND,  36.894094, -76.239204
0761,INDIAN RIVER & FORD,  36.830207, -76.253972
0762,INDIAN RIVER & SAINT LAWRENCE,  36.824378, -76.239447
0763,INDIAN RIVER & HAZEL,  36.822113, -76.231534
0764,INDIAN RIVER & SPARROW,  36.820472, -76.225752
0765,INDIAN RIVER & LELAND,  36.817818, -76.216629
0766,MILITARY & INDIAN RIVER,  36.815356, -76.215775
0767,AUBURN & MILITARY,  36.808862, -76.218052
0768,AUBURN & COLLEGE PARK,  36.807746, -76.216076
0769,PROVIDENCE & AMHERST,  36.810545, -76.209114
0770,SEWELLS POINT & ELMHURST,  36.882357, -76.233898
0771,SEWELLS POINT & BANKHEAD,  36.885670, -76.235801
0772,SEWELLS POINT & NORVELLA,  36.887063, -76.236787
0773,INDIAN RIVER & CHURCH,  36.802165, -76.184676
0774,SEWELLS POINT & STRAND,  36.893884, -76.239015
0775,KEMPSRIVER & FORDHAM,  36.801284, -76.177969
0776,INDIAN RIVER & KEMPSVILLE,  36.796200, -76.173458
0778,INDIAN LAKES & HALIFAX,  36.792233, -76.163922
0779,INDIAN RIVER & STOCKTON,  36.787544, -76.162738
0780,LYNNHAVEN & THAMESFORD,  36.785343, -76.156739
0781,LYNNHAVEN & PLEASANT VALLEY,  36.786559, -76.149889
0782,LYNNHAVEN & QUARTER,  36.787368, -76.145805
0783,LYNNHAVEN & ROUNDHILL,  36.788377, -76.135515
0784,LYNNHAVEN & GREY FRIARS CHASE,  36.788970, -76.127907
0785,LYNNHAVEN & PRINCESS ANNE,  36.792964, -76.119083
0786,LYNNHAVEN & WOODBRIDGE,  36.794902, -76.117202
0787,LYNNHAVEN & RIVERSIDE,  36.795529, -76.111460
0788,BUCKNER & RICA,  36.789207, -76.107690
0789,TCC VIRGINIA BEACH,  36.787376, -76.101322
0790,MICHAEL LA BOUVE & FACULTY,  36.785642, -76.096892
0791,FACULTY & MICHAEL LA BOUVE,  36.784984, -76.096270
0792,BUCKNER & RICA,  36.789523, -76.107717
0793,LYNNHAVEN & LONGWOOD,  36.796094, -76.115381
0794,LYNNHAVEN & DAHLIA,  36.795210, -76.117274
0795,LYNNHAVEN & PRINCESS ANNE,  36.793471, -76.119030
0796,LYNNHAVEN & PISSARRO,  36.789155, -76.128706
0797,LYNNHAVEN & ROUNDHILL,  36.788620, -76.135245
0798,LYNNHAVEN & QUARTER,  36.787535, -76.146075
0799,LYNNHAVEN & PLEASANT VALLEY,  36.786484, -76.151628
0800,LYNNHAVEN & BRIDLE CREEK,  36.785515, -76.157448
0801,INDIAN RIVER & WESTHAVEN,  36.788052, -76.162889
0802,INDIAN LAKES & HALIFAX,  36.792388, -76.163709
0803,KEMPSRIVER & FORDHAM,  36.801513, -76.178023
0804,INDIAN RIVER & THOMPKINS,  36.801148, -76.182066
0805,INDIAN RIVER & FENTON,  36.802021, -76.183850
0806,INDIAN RIVER & GENERAL,  36.802988, -76.185901
0807,INDIAN RIVER & STRICKLAND,  36.805475, -76.191237
0808,INDIAN RIVER & REON,  36.810243, -76.200960
0809,PROVIDENCE & BLAKELY,  36.810637, -76.209446
0810,AUBURN & MILITARY,  36.808652, -76.217563
0811,MILITARY & AUBURN,  36.810210, -76.218421
0812,MILITARY & INDIAN RIVER,  36.815077, -76.215524
0813,INDIAN RIVER & LELAND,  36.818226, -76.216957
0814,INDIAN RIVER & JUSTIS,  36.820598, -76.225210
0815,INDIAN RIVER & HAZEL,  36.822361, -76.231281
0816,INDIAN RIVER & SAINT LAWRENCE,  36.824765, -76.239835
0817,INDIAN RIVER & KEMP,  36.826528, -76.244095
0818,WILSON & CYPRESS,  36.828326, -76.266414
0819,WILSON & MANSON,  36.826276, -76.267851
0820,INDIAN RIVER P&R LOT,  36.810617, -76.199253
0822,PHILPOTTS & DEVONSHIRE,  36.898846, -76.247776
0823,MIDDLE GROUND & ROCK LANDING,  37.094935, -76.468520
0825,BRAMBLETON & PARK,  36.846678, -76.270881
0826,CAMPOSTELLA & INDIAN RIVER,  36.830546, -76.261673
0827,MELON & CAMPOSTELLA,  36.827949, -76.262477
0828,MELON & CYPRESS,  36.826527, -76.263729
0829,MELON & BERKLEY,  36.824435, -76.265229
0831,STALHAM & FIRESIDE,  36.811907, -76.249426
0832,CAMPOSTELLA & VICKER,  36.807966, -76.256072
0833,WINGFIELD & BERKLEY,  36.817631, -76.251905
0834,BORDER & BERKLEY,  36.815497, -76.248768
0835,BATTLEFIELD & ESSEX (mdblk),  36.759948, -76.250235
0836,BATTLEFIELD & GIBSON,  36.756025, -76.248569
0838,BATTLEFIELD & GREAT BRIDGE,  36.734675, -76.240706
0839,BATTLEFIELD & NORTHFIELD,  36.729858, -76.241002
0840,BATTLEFIELD & TILDEN,  36.725467, -76.241359
0841,BATTLEFIELD & LOCKS,  36.721476, -76.240135
0842,BATTLEFIELD & ALBEMARLE,  36.717946, -76.239572
0843,SHEA & CONQUEST (City Hall),  36.715608, -76.248845
0844,CEDAR & LAS GAVIOTAS,  36.719553, -76.287200
0845,TCC CHESAPEAKE,  36.725237, -76.295406
0846,BATTLEFIELD & CEDAR,  36.717600, -76.239215
0849,BATTLEFIELD & WELCH,  36.729978, -76.240659
0850,BATTLEFIELD & GAINSBOROUGH,  36.742196, -76.243145
0851,BATTLEFIELD & MEDICAL,  36.745784, -76.244451
0852,BATTLEFIELD & OAK GROVE,  36.754329, -76.247564
0853,BATTLEFIELD & LENORE,  36.758243, -76.249277
0854,BATTLEFIELD & THRASHER,  36.762686, -76.250936
0855,STALHAM & FIRESIDE,  36.811631, -76.249633
0856,STALHAM & SHADY,  36.813681, -76.249100
0857,BORDER & BETHEL,  36.815738, -76.259208
0859,BERKLEY & CAMPOSTELLA,  36.822724, -76.261408
0860,CAMPOSTELLA & BERKLEY,  36.823570, -76.260488
0861,CAMPOSTELLA & MELON,  36.828269, -76.260968
0862,CAMPOSTELLA & CANTON,  36.832287, -76.261758
0863,CAMPOSTELLA & ARLINGTON,  36.835423, -76.263020
0866,INDEPENDENCE & LAKESIDE,  36.892300, -76.140000
0867,PLEASURE HOUSE & THOROUGHGOOD SQ,  36.896839, -76.138825
0869,SHORE & PLEASANT,  36.928361, -76.191062
0870,LITTLE CREEK & CASTLETON,  36.915777, -76.301918
0873,LITTLE CREEK & TAPLEY,  36.916062, -76.296185
0874,LITTLE CREEK & DIVEN,  36.916101, -76.293574
0876,LITTLE CREEK & ARMFIELD,  36.916157, -76.290575
0877,LITTLE CREEK & RUTHVEN,  36.916049, -76.285261
0878,LITTLE CREEK & SHERYL,  36.915623, -76.281020
0881,LITTLE CREEK & COLONIAL,  36.914987, -76.275257
0882,TAUSSIG & GRANBY,  36.917769, -76.270860
0883,TAUSSIG & LITTLE CREEK,  36.917558, -76.270035
0884,LITTLE CREEK & SAN ANTONIO,  36.917897, -76.264448
0886,LITTLE CREEK & DALLAS,  36.917443, -76.258805
0887,LITTLE CREEK & TIDEWATER,  36.916585, -76.255928
0888,JOHNSTONS & AUBURN,  36.907783, -76.238695
0890,JOHNSTONS & MILITARY,  36.908467, -76.234982
0891,MILITARY & JOHNSTONS,  36.906407, -76.232187
0892,MILITARY & SPRINGMEADOW,  36.904116, -76.230477
0893,MILITARY & LONGDALE,  36.901477, -76.228566
0895,MILITARY & CRESCENT,  36.898111, -76.226118
0896,MILITARY & MCGEE,  36.896058, -76.224673
0898,MILITARY & NORVELLA,  36.892793, -76.222259
0900,AZALEA GARDEN & IOWA,  36.888177, -76.221103
0901,AZALEA GARDEN & WINDERMERE,  36.885554, -76.222786
0903,AZALEA GARDEN & BEAMON,  36.881259, -76.225551
0905,ROBIN HOOD & WALMER,  36.879025, -76.226191
0907,ROBIN HOOD & AYLIFF,  36.879947, -76.221355
0909,ROBIN HOOD & ALMEDA,  36.881315, -76.217044
0910,MILITARY & ROBIN HOOD,  36.878929, -76.212116
0911,MILITARY & ELIZABETH,  36.876312, -76.210855
0912,MILITARY & PRINCESS ANNE,  36.872440, -76.210982
0913,MILITARY & LOWERY,  36.865449, -76.210850
0914,JANAF SHOPPING CENTER,  36.859361, -76.206640
0916,MILITARY CIRCLE MALL,  36.852270, -76.203265
0917,POPLAR HALL & HONAKER,  36.849850, -76.201744
0918,POPLAR HALL & MILITARY,  36.848910, -76.208283
0919,MILITARY & CORPORATE,  36.836091, -76.210670
0920,MILITARY & BROCKMAN,  36.828445, -76.210703
0921,MILITARY & BULLIS,  36.822702, -76.211474
0922,MILITARY & AUBURN,  36.809405, -76.219286
0923,MILITARY & ENGLE,  36.805695, -76.223494
0924,MILITARY & PARAMONT,  36.802227, -76.228241
0925,MILITARY & SMITH,  36.799809, -76.231531
0927,GRANBY & LORENGO,  36.944323, -76.259745
0928,GRANBY & PENNSYLVANIA,  36.882086, -76.282033
0930,MILITARY & OLD GREENBRIER,  36.797857, -76.233725
0931,MILITARY & SMITH,  36.800224, -76.230518
0932,MILITARY & PARAMONT,  36.802468, -76.227489
0934,MILITARY & BULLIS,  36.823697, -76.210677
0935,MILITARY & BROCKMAN,  36.828644, -76.210321
0938,JANAF SHOPPING CENTER,  36.859973, -76.207081
0939,MILITARY & LAKE HERBERT,  36.868714, -76.211099
0940,MILITARY & LEWIS,  36.871447, -76.210930
0942,MILITARY & ELIZABETH,  36.876451, -76.210596
0943,MILITARY & ROBIN HOOD,  36.879510, -76.212280
0944,ROBIN HOOD & ALMEDA,  36.881182, -76.217777
0945,ROBIN HOOD & AYLIFF,  36.880149, -76.221183
0946,ROBIN HOOD & AZALEA GARDEN,  36.879135, -76.226238
0947,AZALEA GARDEN & BEAMON,  36.882152, -76.224854
0949,MILITARY & AZALEA GARDEN,  36.890994, -76.220574
0950,MILITARY & NORVELLA,  36.893205, -76.222299
0951,MILITARY & NORVIEW,  36.895593, -76.224054
0952,MILITARY & IRWIN,  36.896963, -76.225121
0953,MILITARY & MEADOW LAKE,  36.898383, -76.226147
0954,MILITARY & LONGDALE,  36.900978, -76.228036
0956,MILITARY & JOHNSTONS,  36.906664, -76.232191
0957,JOHNSTONS & MILITARY,  36.908823, -76.234619
0959,JOHNSTONS & ROSEMONT,  36.907889, -76.238328
0960,SEWELLS POINT & DENVER,  36.871610, -76.232225
0961,INDIAN RIVER & CAMPOS,  36.830488, -76.260359
0962,LITTLE CREEK & EAST GLENS,  36.917957, -76.260525
0963,LITTLE CREEK & GALVESTON,  36.918183, -76.261712
0964,LITTLE CREEK & GLEN,  36.917744, -76.265349
0965,TAUSSIG & LITTLE CREEK,  36.917589, -76.269771
0966,LITTLE CREEK & VICTORY,  36.915129, -76.275211
0967,LITTLE CREEK & NEWPORT,  36.915586, -76.279783
0968,LITTLE CREEK & RESTMERE,  36.915817, -76.282007
0969,LITTLE CREEK & RUTHVEN,  36.916198, -76.285729
0970,LITTLE CREEK & GRANTHAM,  36.916298, -76.287690
0971,LITTLE CREEK & MOUNT PLEASANT,  36.916221, -76.292181
0972,LITTLE CREEK & DIVEN,  36.916178, -76.294865
0973,LITTLE CREEK & TAPLEY,  36.916155, -76.296302
0974,LITTLE CREEK & TAPLEY 2,  36.916148, -76.297524
0975,LITTLE CREEK & DUNFIELD,  36.915947, -76.300726
0976,LITTLE CREEK & CORTLANDT,  36.915864, -76.302329
0978,LITTLE CREEK & HAMPTON,  36.916126, -76.307112
0979,WILSON & WADE,  36.824546, -76.268893
0980,TIDEWATER & BAYVIEW,  36.933622, -76.253727
0981,TIDEWATER & BECK,  36.937094, -76.254261
0982,TIDEWATER & CHESTER,  36.939109, -76.254598
0983,TIDEWATER & RANDALL,  36.942198, -76.256245
0988,BALLENTINE & PETERSON,  36.871446, -76.252587
0989,BALLENTINE & DAVIS,  36.869682, -76.252160
0990,BALLENTINE & TAIT,  36.867830, -76.251685
0991,BALLENTINE & MCLEMORE,  36.865968, -76.251251
0992,BALLENTINE & TARRANT,  36.862732, -76.250427
0993,PRINCESS ANNE & RAILROAD,  36.860991, -76.248209
0994,PRINCESS ANNE & INGLESIDE 1,  36.862883, -76.244429
0995,PRINCESS ANNE & INGLESIDE 2,  36.863147, -76.243875
0997,BALLENTINE & HOLLISTER,  36.855462, -76.248742
0998,BALLENTINE & DOGAN,  36.857448, -76.249008
1000,BALLENTINE & TARRANT,  36.862571, -76.250255
1001,BALLENTINE & TAIT,  36.867638, -76.251543
1002,BALLENTINE & DAVIS,  36.869525, -76.251997
1003,BALLENTINE & PETERSON,  36.871240, -76.252439
1004,BALLENTINE & HANBURY,  36.873124, -76.252905
1007,OCEAN VIEW & 5TH VIEW,  36.961110, -76.262953
1008,OCEAN VIEW & 6TH VIEW,  36.962932, -76.265772
1009,OCEAN VIEW & 7TH VIEW,  36.963967, -76.267904
1010,OCEAN VIEW & SALEM,  36.966608, -76.276315
1011,OCEAN VIEW & 10TH VIEW,  36.966947, -76.277866
1014,OCEAN VIEW & 15TH VIEW,  36.967023, -76.294018
1015,OCEAN VIEW & RALLSTON,  36.967015, -76.291392
1016,OCEAN VIEW & LE CLAIR,  36.967041, -76.286375
1017,OCEAN VIEW & 11TH VIEW,  36.967012, -76.281453
1018,OCEAN VIEW & 10TH VIEW,  36.966772, -76.278156
1019,OCEAN VIEW & 9TH VIEW,  36.966075, -76.275321
1021,VIRGINIA BEACH & SALTER,  36.857649, -76.284475
1022,VIRGINIA BEACH & SAINT PAUL,  36.857360, -76.282058
1023,VIRGINIA BEACH & CHAPEL,  36.855057, -76.276478
1025,VIRGINIA BEACH & MARSHALL,  36.852237, -76.267617
1026,VIRGINIA BEACH & COVENANT,  36.851876, -76.263949
1027,VIRGINIA BEACH & MAPOLE,  36.851971, -76.260996
1028,VIRGINIA BEACH & OAKLAWN,  36.852033, -76.259189
1029,VIRGINIA BEACH & MAJESTIC,  36.852102, -76.257625
1030,VIRGINIA BEACH & NORCHESTER,  36.852195, -76.255328
1032,VIRGINIA BEACH & GODFREY,  36.852475, -76.250575
1033,VIRGINIA BEACH & BALLENTINE,  36.852781, -76.248537
1034,VIRGINIA BEACH & FAIR MEADOWS,  36.853305, -76.175665
1035,VIRGINIA BEACH & ANNA,  36.856067, -76.230745
1036,VIRGINIA BEACH & JETT,  36.856252, -76.224790
1037,VIRGINIA BEACH & PECAN POINT,  36.856090, -76.220356
1038,VIRGINIA BEACH & ROUND BAY,  36.855962, -76.217227
1039,VIRGINIA BEACH & BRIAR HILL,  36.855860, -76.214528
1040,GLENROCK & VIRGINIA BEACH,  36.854489, -76.202824
1042,VIRGINIA BEACH & KEMPSVILLE,  36.855033, -76.194367
1047,VIRGINIA BEACH & NEWTOWN,  36.853914, -76.177110
1048,VIRGINIA BEACH & DAVIS,  36.851863, -76.172058
1049,VIRGINIA BEACH & TOY,  36.850310, -76.168287
1050,VIRGINIA BEACH & CLEARFIELD,  36.848794, -76.164570
1051,VIRGINIA BEACH & NELMS,  36.848060, -76.162746
1052,VIRGINIA BEACH & NORTHRIDGE,  36.847461, -76.161247
1053,VIRGINIA BEACH & WITCHDUCK,  36.845573, -76.156784
1054,VIRGINIA BEACH & PENNSYLVANIA,  36.844875, -76.155165
1055,VIRGINIA BEACH & OPAL,  36.843607, -76.150133
1056,VIRGINIA BEACH & ARAGONA,  36.843500, -76.146032
1057,VIRGINIA BEACH & HORACE,  36.843453, -76.143418
1058,VIRGINIA BEACH & FIRST,  36.843418, -76.141086
1059,VIRGINIA BEACH & BEASLEY,  36.843230, -76.128360
1061,VIRGINIA BEACH & THALIA,  36.843146, -76.121420
1062,VIRGINIA BEACH & ASH,  36.843100, -76.119152
1063,VIRGINIA BEACH & THALIA STATION,  36.842260, -76.115872
1064,VIRGINIA BEACH & KENTUCKY,  36.840637, -76.111482
1065,VIRGINIA BEACH & LYNN SHORES,  36.839782, -76.108256
1066,VIRGINIA BEACH & CAREN,  36.839733, -76.105847
1067,VIRGINIA BEACH & STRIP MALL,  36.839721, -76.103586
1068,VIRGINIA BEACH & ROSEMONT,  36.840400, -76.096516
1069,VIRGINIA BEACH & MALIBU,  36.840615, -76.095088
1070,VIRGINIA BEACH & PLAZA TRAIL,  36.841193, -76.091147
1071,VIRGINIA BEACH & KING RICHARD,  36.841561, -76.088555
1072,VIRGINIA BEACH & GROVELAND,  36.842072, -76.085216
1073,VIRGINIA BEACH & KINGS GRANT,  36.843352, -76.076204
1074,VIRGINIA BEACH & LYNNHAVEN,  36.844008, -76.071821
1075,VIRGINIA BEACH & YORKTOWN,  36.843844, -76.069827
1076,VIRGINIA BEACH & FOUNDRY,  36.842832, -76.066892
1077,VIRGINIA BEACH & EUREKA,  36.840879, -76.061594
1078,VIRGINIA BEACH & LYNNRIVER,  36.840789, -76.059112
1079,VIRGINIA BEACH & PARKER,  36.841316, -76.055420
1080,VIRGINIA BEACH & BYRD,  36.841718, -76.052546
1082,LASKIN & REGENCY,  36.848221, -76.033219
1083,LASKIN & VILLAGE,  36.849188, -76.028662
1084,LASKIN & REPUBLIC,  36.849470, -76.027157
1085,FIRST COLONIAL & LASKIN,  36.849916, -76.022114
1086,FIRST COLONIAL & DONNA,  36.848182, -76.021699
1087,VIRGINIA BEACH & OCEANA,  36.842706, -76.012200
1088,VIRGINIA BEACH & BIRCH LAKE,  36.841797, -75.993802
1089,VIRGINIA BEACH & SEABRIDGE,  36.842177, -75.991604
1090,VIRGINIA BEACH & 2ND,  36.842683, -75.988970
1091,VIRGINIA BEACH & PARKS,  36.843414, -75.984966
1092,VIRGINIA BEACH & CYPRESS,  36.843730, -75.983150
1093,VIRGINIA BEACH & BALTIC,  36.844382, -75.979372
1094,19TH & PACIFIC,  36.847104, -75.976269
1095,20TH & ARTIC,  36.847748, -75.977697
1096,ARCTIC & VIRGINIA BEACH,  36.844881, -75.977509
1097,VIRGINIA BEACH & MEDITERRANEAN,  36.844141, -75.981665
1098,VIRGINIA BEACH & JEFFERSON,  36.842909, -75.988801
1099,VIRGINIA BEACH & ANCHORAGE,  36.842688, -75.990348
1100,VIRGINIA BEACH & BIRCH LAKE,  36.841877, -75.995253
1101,VIRGINIA BEACH & DUKES,  36.842722, -76.004430
1102,VIRGINIA BEACH & SHIPPS,  36.842743, -76.005807
1103,VIRGINIA BEACH & GARCIA,  36.842793, -76.011025
1104,VIRGINIA BEACH & SCOTT,  36.842840, -76.011736
1105,FIRST COLONIAL & DONNA,  36.848403, -76.021436
1106,LASKIN & HILLTOP,  36.850432, -76.024980
1107,LASKIN & VICTOR,  36.849728, -76.028558
1108,LASKIN & REGENCY,  36.848737, -76.033083
1109,LASKIN & BRATTEN,  36.846984, -76.035925
1111,VIRGINIA BEACH & GREAT NECK,  36.841915, -76.050420
1112,VIRGINIA BEACH & CRIPPLE CREEK,  36.841164, -76.058669
1113,VIRGINIA BEACH & BALTIC,  36.844484, -75.979776
1114,VIRGINIA BEACH & MUSTANG,  36.842624, -76.065483
1115,VIRGINIA BEACH & YORKTOWN,  36.844095, -76.069514
1116,VIRGINIA BEACH & CRANSTON,  36.842890, -76.082064
1117,VIRGINIA BEACH & GROVELAND,  36.842303, -76.085997
1118,VIRGINIA BEACH & KING RICHARD,  36.841954, -76.088315
1119,VIRGINIA BEACH & LITTLE NECK,  36.841472, -76.091965
1120,VIRGINIA BEACH & LYNN SHORES,  36.840211, -76.108775
1121,VIRGINIA BEACH & KENTUCKY,  36.841129, -76.111730
1122,VIRGINIA BEACH & LOEHMANNS,  36.841821, -76.113595
1123,VIRGINIA BEACH & STEPNEY,  36.842830, -76.116366
1124,VIRGINIA BEACH & THALIA,  36.843489, -76.121022
1126,VIRGINIA BEACH & SECOND,  36.843748, -76.138386
1127,VIRGINIA BEACH & KELLAM,  36.843806, -76.141844
1128,VIRGINIA BEACH & ARAGONA,  36.843864, -76.146049
1129,VIRGINIA BEACH & DORSET,  36.843913, -76.150303
1130,VIRGINIA BEACH & SOUTHGATE,  36.844854, -76.153954
1131,VIRGINIA BEACH & WITCHDUCK,  36.845756, -76.156209
1132,VIRGINIA BEACH & WITCHDUCK,  36.846914, -76.159049
1133,VIRGINIA BEACH & CLEARFIELD,  36.849023, -76.164241
1134,VIRGINIA BEACH & WEXFORD,  36.850526, -76.167952
1135,VIRGINIA BEACH & DAVIS,  36.852051, -76.171693
1136,VIRGINIA BEACH & FAIR MEADOWS,  36.854092, -76.176858
1137,VIRGINIA BEACH & REEL,  36.854835, -76.181159
1138,VIRGINIA BEACH & LAND,  36.855078, -76.188539
1139,VIRGINIA BEACH & KEMPSVILLE,  36.855309, -76.194961
1140,VIRGINIA BEACH & BURLING,  36.855471, -76.197622
1141,VIRGINIA BEACH & GLENROCK,  36.855631, -76.202499
1142,VIRGINIA BEACH & MILITARY,  36.855787, -76.206936
1143,VIRGINIA BEACH & BRIAR HILL,  36.856071, -76.214531
1144,VIRGINIA BEACH & RABY,  36.856199, -76.218951
1145,VIRGINIA BEACH & PECAN POINT,  36.856303, -76.220942
1146,VIRGINIA BEACH & AZALEA GARDEN 1,  36.856127, -76.231857
1147,VIRGINIA BEACH & GODFREY,  36.852530, -76.250836
1148,VIRGINIA BEACH & MERRIMAC,  36.852369, -76.252769
1149,VIRGINIA BEACH & NORCHESTER,  36.852306, -76.255106
1150,VIRGINIA BEACH & MAJESTIC,  36.852216, -76.257406
1151,VIRGINIA BEACH & OAKLAWN,  36.852147, -76.258970
1153,VIRGINIA BEACH & COVENANT,  36.852136, -76.263726
1154,VIRGINIA BEACH & MARSHALL,  36.852388, -76.267301
1155,VIRGINIA BEACH & TIDEWATER,  36.854537, -76.273983
1156,VIRGINIA BEACH & CHAPEL,  36.855364, -76.276599
1157,VIRGINIA BEACH & CHURCH,  36.856262, -76.278647
1159,VIRGINIA BEACH & SALTER,  36.857893, -76.284408
1161,VIRGINIA BEACH & FIRST COLONIAL,  36.842340, -76.020369
1162,VIRGINIA BEACH & BIRCHWOOD MALL,  36.840184, -76.100679
1163,VIRGINIA BEACH & ROSEMONT,  36.840534, -76.098048
1166,PRINCESS ANNE & MANTEO,  36.864911, -76.297190
1167,PRINCESS ANNE & COLONIAL,  36.863604, -76.294397
1168,PRINCESS ANNE & BOTETOURT,  36.862459, -76.292136
1169,PRINCESS ANNE & LLEWELLYN,  36.861481, -76.290362
1170,PRINCESS ANNE & GRANBY,  36.860981, -76.288636
1171,PRINCESS ANNE & ARMISTEAD,  36.860139, -76.285338
1173,PRINCESS ANNE & CHURCH,  36.858201, -76.278587
1174,PRINCESS ANNE & WIDE,  36.857728, -76.277134
1175,PRINCESS ANNE & CHAPEL,  36.857049, -76.275195
1176,PRINCESS ANNE & TIDEWATER,  36.856130, -76.272385
1177,PRINCESS ANNE & HANSON,  36.855168, -76.269445
1178,PRINCESS ANNE & RESERVOIR (BTHS),  36.854632, -76.267697
1179,PRINCESS ANNE & PARK,  36.853863, -76.263885
1180,PRINCESS ANNE & RAINEY,  36.854288, -76.261562
1181,PRINCESS ANNE & KENTON,  36.854561, -76.260072
1182,PRINCESS ANNE & OAKLAWN,  36.854790, -76.258697
1183,PRINCESS ANNE & MAJESTIC,  36.855084, -76.257824
1184,PRINCESS ANNE & NORCHESTER,  36.856187, -76.255489
1185,PRINCESS ANNE & MERRIMAC,  36.857294, -76.253748
1186,PRINCESS ANNE & BALLENTINE,  36.859856, -76.249701
1187,PRINCESS ANNE & GRANDY,  36.860417, -76.248911
1188,PRINCESS ANNE & NEVADA,  36.864152, -76.241448
1189,PRINCESS ANNE & RUSH,  36.865219, -76.239139
1190,PRINCESS ANNE & AZALEA GARDEN 1,  36.866585, -76.235360
1192,PRINCESS ANNE & JUNIPER,  36.867059, -76.230989
1193,PRINCESS ANNE & SEWELLS POINT,  36.867663, -76.229534
1194,PRINCESS ANNE & NORCOVA,  36.868892, -76.227095
1195,PRINCESS ANNE & MCNEAL,  36.870666, -76.223790
1196,PRINCESS ANNE & RIVER OAKS,  36.871842, -76.221596
1197,PRINCESS ANNE & DARDEN,  36.872615, -76.220232
1198,PRINCESS ANNE & GABRIEL,  36.873937, -76.217830
1199,PRINCESS ANNE & KILMER,  36.875046, -76.215107
1201,PRINCESS ANNE & MILITARY,  36.874363, -76.209200
1202,LOWERY & KEMPSVILLE,  36.865652, -76.205688
1203,LOWERY & MILITARY (FrmFrsh),  36.864297, -76.208208
1204,LOWERY & WALMART,  36.864175, -76.208031
1205,LOWERY & KEMPSVILLE,  36.865977, -76.204906
1206,KEMPSVILLE & LAKE TAYLOR HIGH SCHOOL,  36.869252, -76.204298
1207,PRINCESS ANNE & COWAND,  36.875091, -76.212519
1208,PRINCESS ANNE & GABRIEL,  36.874242, -76.217787
1209,PRINCESS ANNE & BEEKMAN,  36.871829, -76.222247
1210,PRINCESS ANNE & MCNEAL,  36.871004, -76.223811
1211,PRINCESS ANNE & HALSTEAD,  36.870120, -76.225390
1212,PRINCESS ANNE & NORCOVA,  36.869208, -76.227072
1213,PRINCESS ANNE & MILTATE,  36.868350, -76.228756
1214,PRINCESS ANNE & EARLY,  36.867148, -76.231647
1216,PRINCESS ANNE & FAIRBANKS,  36.865828, -76.238296
1217,PRINCESS ANNE & MINNESOTA,  36.864787, -76.240598
1218,PRINCESS ANNE & INGLESIDE,  36.863207, -76.243992
1219,PRINCESS ANNE & CROMWELL,  36.861181, -76.248108
1220,PRINCESS ANNE & GODFREY,  36.858308, -76.252378
1221,PRINCESS ANNE & MERRIMAC,  36.857107, -76.254288
1222,PRINCESS ANNE & GRAND BASSA,  36.855759, -76.256484
1223,PRINCESS ANNE & RAINEY,  36.854467, -76.261353
1224,PRINCESS ANNE & PARK,  36.854003, -76.263951
1225,PRINCESS ANNE & MARSHALL,  36.854419, -76.266594
1226,PRINCESS ANNE & MALTBY,  36.854943, -76.268239
1227,PRINCESS ANNE & COURTNEY,  36.855480, -76.270106
1228,PRINCESS ANNE & TIDEWATER,  36.856445, -76.273056
1229,PRINCESS ANNE & CHAPEL,  36.857066, -76.274942
1230,PRINCESS ANNE & WIDE,  36.857711, -76.276779
1231,PRINCESS ANNE & CHURCH,  36.858367, -76.278794
1232,PRINCESS ANNE & ARMISTEAD,  36.860232, -76.285318
1234,PRINCESS ANNE & GRANBY,  36.860902, -76.287917
1235,PRINCESS ANNE & PENDER,  36.862025, -76.291088
1236,PRINCESS ANNE & COLONIAL,  36.863593, -76.294144
1237,PRINCESS ANNE & MANTEO,  36.864900, -76.296921
1238,PRINCESS ANNE & COLLEY,  36.865801, -76.299041
1239,COLLEY & FAIRFAX,  36.860096, -76.300441
1242,WOODIS & COLLEY,  36.856630, -76.303749
1243,COLUMBUS & MARKET,  36.841000, -76.133187
1244,WILSON & LANDSWORTH,  36.823454, -76.269821
1247,CAMPOSTELLA & HUNTERDALE,  36.805309, -76.255666
1248,CAMPOSTELLA & ARBOR GLEN,  36.806980, -76.255839
1249,ATLANTIC & NARROW,  36.803611, -76.263256
1250,PACIFIC & WINSTON SALEM,  36.833652, -75.972456
1252,ATLANTIC & 42ND,  36.870793, -75.982355
1253,ATLANTIC & 43RD,  36.871224, -75.982481
1254,ATLANTIC & 45TH,  36.872807, -75.982947
1255,ATLANTIC & 52ND,  36.879044, -75.984923
1256,ATLANTIC & 56TH,  36.882468, -75.985965
1257,ATLANTIC & 58TH,  36.884128, -75.986451
1258,ATLANTIC & 61ST,  36.886487, -75.987204
1268,ATLANTIC & 68TH,  36.892565, -75.989434
1269,ATLANTIC & 65TH,  36.890550, -75.988618
1270,ATLANTIC & 61ST,  36.886507, -75.987376
1271,ATLANTIC & 57TH,  36.883446, -75.986431
1272,ATLANTIC & 51ST,  36.878537, -75.984914
1273,ATLANTIC & 46TH,  36.874050, -75.983496
1275,ATLANTIC & 43RD,  36.871352, -75.982815
1285,PACIFIC & 6TH,  36.834460, -75.972429
1286,PACIFIC & 11TH,  36.839252, -75.973864
1287,PACIFIC & 16TH,  36.844064, -75.975178
1288,ATLANTIC & NARROW,  36.803441, -76.263008
1289,LIBERTY & OLD ATLANTIC,  36.817287, -76.266117
1290,KEMPSVILLE & KEMPSVILLE CIRCLE,  36.851615, -76.192216
1291,LIBERTY & GREER,  36.816299, -76.263723
1292,LIBERTY & JEFFERSON,  36.816341, -76.264046
1294,KEMPSVILLE & BANGOR,  36.843094, -76.189386
1295,NEWTOWN & KEMPSVILLE,  36.842129, -76.187142
1296,NEWTOWN & GREENWICH,  36.844153, -76.184506
1302,KEMPSVILLE & WELLVILLE,  36.853909, -76.193349
1303,GREAT NECK & WILLOW OAK,  36.910228, -76.067657
1304,GREAT NECK & WILLOW OAK,  36.910003, -76.067928
1305,NEWTOWN & LARRY,  36.849518, -76.179461
1307,NEWTOWN & ELAM,  36.851283, -76.178555
1308,NEWTOWN & ETHAN ALLEN,  36.849812, -76.179601
1309,NEWTOWN & GREENWICH,  36.843644, -76.185317
1310,KEMPSVILLE & BANGOR,  36.843180, -76.189003
1311,KEMPSVILLE & BLACKSTONE,  36.844043, -76.189971
1312,VIRGINIA BEACH & BYRD,  36.842074, -76.052499
1315,NEWTOWN & REDSTONE,  36.857008, -76.176848
1316,BAKER & HAMPSHIRE (near side),  36.860420, -76.175875
1317,BAKER & HAMPSHIRE (mdblk),  36.862541, -76.177410
1318,BAKER & BAKER COURT,  36.864108, -76.178425
1320,NORTHAMPTON & WESLEYAN,  36.877764, -76.191980
1321,NORTHAMPTON & BURTON STATION,  36.880767, -76.187139
1322,NORTHAMPTON & BAKER (far side),  36.883930, -76.182292
1323,NORTHAMPTON & BAYSIDE,  36.891559, -76.171553
1324,NORTHAMPTON & SHELL (mid block),  36.895354, -76.155264
1325,NORTHAMPTON & JACK FROST,  36.894780, -76.157896
1326,NORTHAMPTON & BAYSIDE,  36.892350, -76.168752
1327,NORTHAMPTON & DIAMOND SPRINGS,  36.886621, -76.179716
1328,NORTHAMPTON & BAKER (near side),  36.884376, -76.182210
1329,NORTHAMPTON & BAKER (far side),  36.883206, -76.184034
1330,NORTHAMPTON & BURTON STATION,  36.880765, -76.187748
1332,WESLEYAN & COLLEGE,  36.872158, -76.185273
1333,BAKER & CAMPUS,  36.869722, -76.181109
1334,BAKER & LAKE EDWARD,  36.864800, -76.178972
1335,BAKER & HAMPSHIRE,  36.862179, -76.177281
1336,BAKER & HAMPSHIRE (far side),  36.861133, -76.176526
1337,NEWTOWN & LAKE EDWARD,  36.858006, -76.176513
1340,INDEPENDENCE & COLUMBUS,  36.840343, -76.137115
1342,INDEPENDENCE & KEENER,  36.829234, -76.135875
1344,HOLLAND & COMMUTER,  36.821655, -76.123935
1345,HOLLAND & S. PLAZA,  36.819275, -76.120131
1346,OCEAN VIEW & FIRST VIEW,  36.956632, -76.254209
1354,ROSEMONT & HOLLAND,  36.812344, -76.098308
1356,ROSEMONT & NORTHWOOD,  36.802477, -76.100018
1357,ROSEMONT & DAHLIA,  36.798166, -76.098917
1358,ROSEMONT & LYNNHAVEN (far),  36.794828, -76.098825
1359,ROSEMONT & BUCKNER,  36.788995, -76.097195
1360,ROSEMONT & BUCKNER,  36.788660, -76.096653
1361,ROSEMONT & PRIMROSE,  36.793727, -76.098855
1362,LYNNHAVEN & PRIMROSE,  36.794800, -76.093973
1363,LYNNHAVEN & CRIMSON HOLLY,  36.796263, -76.088224
1365,LYNNHAVEN & RIVERBEND,  36.803969, -76.082631
1366,LYNNHAVEN & CHERIE,  36.810541, -76.072045
1367,LYNNHAVEN & CHERIE (mid-block),  36.812026, -76.069845
1368,LYNNHAVEN  MALL,  36.815248, -76.068094
1370,LYNNHAVEN & SOUTHERN,  36.840349, -76.063731
1371,FIRST COLONIAL & CAMELOT,  36.867072, -76.029689
1374,GREAT NECK & GODFREY,  36.884289, -76.047194
1375,GREAT NECK & GREEN HILL,  36.895220, -76.060059
1376,SHORE & GREAT NECK,  36.912134, -76.069584
1377,SHORE & EBB TIDE,  36.911228, -76.072418
1378,SHORE & STRATFORD,  36.907971, -76.097109
1379,SHORE & SHADY OAKS,  36.907548, -76.108128
1380,SHORE & BAYVILLE,  36.907033, -76.113112
1381,SHORE & TREASURE ISLAND,  36.905792, -76.119631
1382,SHORE & TREASURE ISLAND (mid-block),  36.904912, -76.123935
1383,SHORE & VANTAGE,  36.904431, -76.126366
1384,SHORE & GREENWELL,  36.904255, -76.125957
1385,SHORE & TREASURE ISLAND,  36.905482, -76.119925
1386,SHORE & SUNVISTA,  36.907334, -76.107608
1387,SHORE & MYSTIC COVE,  36.907719, -76.102663
1388,SHORE & ROCKBRIDGE,  36.907888, -76.100050
1389,SHORE & STRATFORD,  36.907763, -76.097269
1390,SHORE & STARFISH,  36.910189, -76.077751
1391,SHORE & SEA SHELL,  36.910671, -76.074575
1392,SHORE & EBB TIDE,  36.910958, -76.072667
1395,GREAT NECK & THOMAS BISHOP,  36.896720, -76.062552
1396,GREAT NECK & RIVER,  36.891828, -76.055481
1397,GREAT NECK & FALCON,  36.889150, -76.051412
1398,GREAT NECK & SHOREHAVEN,  36.886342, -76.049197
1399,GREAT NECK & MILLWOOD,  36.880356, -76.043847
1404,FIRST COLONIAL & BANCROFT HALL,  36.866280, -76.029527
1406,LYNNHAVEN & SOUTHERN,  36.838345, -76.065145
1407,LYNNHAVEN & VIKING,  36.828720, -76.067392
1408,LYNNHAVEN & S LYNNHAVEN (FAR),  36.810414, -76.072842
1409,LYNNHAVEN & MAPLETON,  36.809637, -76.074005
1410,LYNNHAVEN & LAMPLIGHT,  36.805689, -76.080342
1411,LYNNHAVEN & HOLLAND,  36.798323, -76.086894
1412,LYNNHAVEN & CRIMSON HOLLY,  36.796572, -76.088309
1413,ROSEMONT & MOUNTAIN,  36.797052, -76.098430
1414,ROSEMONT & SHAWN,  36.799393, -76.098800
1415,ROSEMONT & STONESHORE,  36.805940, -76.100204
1416,ROSEMONT & WILLOW LAKE,  36.809033, -76.099287
1417,ROSEMONT & HOLLAND,  36.811891, -76.098022
1418,FIRST COLONIAL & WILL O WISP,  36.863196, -76.027887
1423,VIRGINIA BEACH & HUTTON,  36.841522, -76.056326
1424,SHORE & STARFISH,  36.910379, -76.078029
1425,ROSEMONT & BUNYAN,  36.809983, -76.099176
1427,PRINCESS ANNE & BAXTER,  36.822388, -76.151167
1428,HOLLAND & COMMUTER,  36.821792, -76.123747
1429,INDEPENDENCE & EDWIN,  36.826991, -76.131852
1430,INDEPENDENCE & WICKLOW,  36.829294, -76.135538
1432,FIRST COLONIAL & SOUTHHALL,  36.856859, -76.025741
1433,LYNNHAVEN & PRIMROSE,  36.795063, -76.093894
1434,INDEPENDENCE & BONNEY,  36.838310, -76.136770
1435,HOLLAND & S. PLAZA,  36.820419, -76.121551
1440,HOLLAND & PLAZA,  36.818230, -76.118451
1441,HOLLAND & WATERS,  36.817524, -76.117346
1442,HOLLAND & CHASEWAY,  36.814993, -76.104505
1443,HOLLAND & CHIMNEY HILL,  36.814075, -76.101254
1444,HOLLAND & GARFIELD,  36.812427, -76.096599
1445,HOLLAND & CHANTRY,  36.811673, -76.095431
1446,HOLLAND & NORTHWOOD,  36.808939, -76.092910
1447,HOLLAND & STONESHORE,  36.806032, -76.090725
1448,HOLLAND & GREEN RUN,  36.801510, -76.087171
1449,HOLLAND & GREEN RUN,  36.801913, -76.087134
1450,HOLLAND & DIANA LEE,  36.809512, -76.092954
1451,HOLLAND & CHANTRY,  36.811736, -76.095002
1452,HOLLAND & GARFIELD,  36.812578, -76.096274
1453,HOLLAND & CHIMNEY HILL,  36.814298, -76.101394
1454,HOLLAND & GOVERNORS,  36.816208, -76.108434
1455,HOLLAND & WINDSOR OAKS,  36.816282, -76.113021
1456,GENERAL BOOTH & CULVER,  36.774958, -76.006426
1457,GENERAL BOOTH & HUBBELL,  36.782271, -76.001232
1458,GENERAL BOOTH & EDISON,  36.779322, -76.002897
1459,HOLLAND & WINDSOR OAKS,  36.816153, -76.111282
1460,INTERNATIONAL & SEAHAWK,  36.815638, -76.062876
1461,INTERNATIONAL & RELIANCE,  36.811611, -76.057070
1466,GENERAL BOOTH & DAM NECK,  36.787612, -75.998213
1470,INTERNATIONAL & SEAHAWK,  36.816036, -76.063104
1481,GENERAL BOOTH & BIRDNECK,  36.810835, -75.989674
1483,GENERAL BOOTH & RUDEE POINT,  36.828929, -75.973610
1485,PACIFIC & 25TH,  36.853087, -75.977512
1486,PACIFIC & 28TH,  36.856138, -75.978332
1487,PACIFIC & 34TH,  36.861920, -75.980003
1488,PACIFIC & 36TH,  36.864269, -75.980631
1489,GENERAL BOOTH & HARBOUR,  36.829230, -75.973651
1490,GENERAL BOOTH & VA AQUARIUM,  36.820658, -75.982877
1492,GENERAL BOOTH & BIRDNECK,  36.809431, -75.990442
1493,GENERAL BOOTH & OCEANA,  36.793977, -75.995517
1500,PRINCESS ANNE & CHEYENNE,  36.839945, -76.182899
1501,PRINCESS ANNE & HILL PRINCE,  36.835039, -76.178633
1502,PRINCESS ANNE & KEMPSHIRE,  36.824965, -76.157814
1503,PRINCESS ANNE & BAXTER,  36.822639, -76.151797
1504,PRINCESS ANNE & EDWIN,  36.815002, -76.144722
1505,PRINCESS ANNE & TIMBERLAKE,  36.810403, -76.138177
1506,PRINCESS ANNE & PLAZA,  36.802706, -76.132379
1507,PRINCESS ANNE & PARLIAMENT,  36.828705, -76.168500
1508,PRINCESS ANNE & OVERLAND,  36.827128, -76.162183
1510,PRINCESS ANNE & DAM NECK,  36.775684, -76.091564
1511,INDEPENDENCE & CULLEN,  36.888374, -76.137369
1512,PRINCESS ANNE & DEGRASSE,  36.753013, -76.056180
1514,PRINCESS ANNE & GENERAL BOOTH,  36.760373, -76.018845
1515,PRINCESS ANNE & PARLIAMENT,  36.828048, -76.166528
1516,PRINCESS ANNE & CAPOT,  36.830493, -76.173312
1523,PRINCESS ANNE & GENERAL BOOTH,  36.759564, -76.020886
1525,VIRGINIA BEACH & CYPRESS,  36.843828, -75.983515
1526,UPTON & NIMMO,  36.760030, -76.005400
1527,PRINCESS ANNE & DEGRASSE,  36.752975, -76.055935
1529,PRINCESS ANNE & DAM NECK,  36.778358, -76.095223
1530,UNIVERSITY & FACULTY,  36.784086, -76.096678
1537,PRINCESS ANNE & BRANTINGHAM,  36.800760, -76.130446
1538,PRINCESS ANNE & CAMBELTON,  36.808176, -76.135002
1539,PRINCESS ANNE & TIMBERLAKE,  36.810880, -76.138343
1540,PRINCESS ANNE & EDWIN,  36.815220, -76.144372
1541,PRINCESS ANNE & FOREST,  36.825611, -76.158783
1543,PORTSMOUTH & CHESTNUT,  36.818747, -76.307778
1544,PORTSMOUTH & FREDERICK,  36.816920, -76.325861
1546,PORTSMOUTH & ELM 1,  36.819210, -76.311023
1547,PORTSMOUTH & ELM 2,  36.819414, -76.312842
1549,PORTSMOUTH & LANSING,  36.818752, -76.317511
1550,COUNTY & COURT,  36.833904, -76.299423
1551,COURT & CRAWFORD,  36.831360, -76.300809
1552,PORT CENTRE & MADISON,  36.822276, -76.297207
1553,MADISON & 7TH,  36.820688, -76.301803
1554,GEORGE WASHINGTON & WIRT,  36.813490, -76.313386
1555,GEORGE WASHINGTON & FREDERICK,  36.811377, -76.315916
1556,GEORGE WASHINGTON & GREENWOOD (near side),  36.807490, -76.319241
1557,GEORGE WASHINGTON & HANBURY,  36.804785, -76.321445
1558,AFTON & GEORGE WASHINGTON,  36.802769, -76.321840
1559,AFTON & DECATUR,  36.801743, -76.318602
1560,GEORGE WASHINGTON & CHANNING,  36.801933, -76.323205
1561,GEORGE WASHINGTON & GARRETT,  36.798954, -76.325071
1562,GEORGE WASHINGTON & WOODLAND,  36.797767, -76.325805
1563,GEORGE WASHINGTON & RODGERS,  36.796559, -76.326633
1564,VICTORY & GEORGE WASHINGTON,  36.795350, -76.328815
1565,VICTORY & PUEBLO,  36.795620, -76.330502
1566,GREENWOOD & CLAY,  36.799809, -76.364465
1568,VICTORY & GREENWOOD,  36.801407, -76.352173
1569,VICTORY & FREEDOM,  36.804810, -76.354168
1570,MCLEAN & BELMONT,  36.811043, -76.352455
1571,VICTORY & ELMHURST,  36.809896, -76.358013
1575,VICTORY & DEEP CREEK,  36.795983, -76.335305
1576,VICTORY & SEBAGO,  36.795711, -76.332020
1577,VICTORY & HURON,  36.795225, -76.329072
1578,GEORGE WASHINGTON & RODGERS,  36.796250, -76.326421
1579,GEORGE WASHINGTON & WOODLAND,  36.797518, -76.325742
1580,GEORGE WASHINGTON & GARRETT,  36.798710, -76.325009
1582,GEORGE WASHINGTON & GREENWOOD,  36.807159, -76.319346
1583,GEORGE WASHINGTON & FREDERICK,  36.811141, -76.315943
1584,GEORGE WASHINGTON & ELM,  36.814536, -76.311440
1587,HIGH & CRAWFORD,  36.835237, -76.298051
1589,PORTSMOUTH & PIEDMONT,  36.818418, -76.319247
1590,FLORIDA & HIGH,  36.835028, -76.336942
1591,HIGH & WATSON,  36.834503, -76.334496
1592,HIGH & CUTHERELL,  36.834539, -76.332728
1593,CUTHERELL & MCKINLEY,  36.833001, -76.331730
1594,ROMANESQUE & MARKHAM,  36.831433, -76.331618
1595,TURNPIKE & HOWARD,  36.827559, -76.334932
1596,TURNPIKE & FREDERICK,  36.825630, -76.338108
1597,TURNPIKE & RODMAN,  36.820660, -76.346366
1598,TURNPIKE & UTAH,  36.819252, -76.348679
1599,TURNPIKE & KINGS,  36.816957, -76.352470
1600,MCLEAN & AIRLINE,  36.814365, -76.355491
1601,PORTSMOUTH & MOHAWK,  36.816274, -76.362152
1602,PORTSMOUTH & CATAWBA,  36.817163, -76.365751
1603,PORTSMOUTH & BYERS,  36.818256, -76.371891
1604,PORTSMOUTH & JEWELL,  36.818803, -76.375177
1605,PORTSMOUTH & ELMHURST,  36.819614, -76.379572
1606,PORTSMOUTH & ROBIN,  36.820902, -76.386875
1607,PORTSMOUTH & BOB WHITE,  36.821480, -76.390168
1608,PORTSMOUTH & TAYLOR,  36.823952, -76.411650
1609,PORTSMOUTH & CAPRI CIRCLE W (Kmart),  36.822083, -76.420331
1610,PORTSMOUTH & CAPRI,  36.821324, -76.422424
1611,PORTSMOUTH & ROBIN,  36.820672, -76.386766
1612,PORTSMOUTH & HAYSOM,  36.819345, -76.379181
1613,PORTSMOUTH & STANLEY,  36.818563, -76.374860
1614,PORTSMOUTH & BYERS,  36.818190, -76.372444
1615,MCLEAN & COURT,  36.814096, -76.355068
1616,MCLEAN & TURNPIKE,  36.815115, -76.355483
1617,TURNPIKE & UTAH,  36.819476, -76.348051
1618,TURNPIKE & LENORA,  36.824158, -76.340321
1619,TURNPIKE & FREDERICK,  36.825358, -76.338234
1620,TURNPIKE & PRESTON,  36.827580, -76.334687
1621,TURNPIKE & PHILLIPS,  36.829368, -76.331673
1622,ROMANESQUE & MARKHAM,  36.831346, -76.331391
1623,CUTHERELL & MCKINLEY,  36.833189, -76.331499
1624,CUTHERELL & HIGH,  36.834453, -76.332550
1625,HIGH & WATSON,  36.834614, -76.334275
1633,HIGH & EFFINGHAM,  36.835088, -76.306389
1634,EFFINGHAM & SOUTH,  36.832669, -76.306910
1636,EFFINGHAM & COUNTY,  36.832996, -76.306681
1637,EFFINGHAM & BRIGHTON,  36.826983, -76.306648
1640,EFFINGHAM & LINCOLN,  36.824359, -76.306504
1641,EFFINGHAM & LINCOLN,  36.824365, -76.306239
1642,EFFINGHAM & FAYETTE,  36.822478, -76.306425
1643,EFFINGHAM & PALMER,  36.823060, -76.306154
1644,EFFINGHAM & GARFIELD,  36.821005, -76.306365
1645,EFFINGHAM & GARFIELD,  36.821541, -76.306088
1646,EFFINGHAM & ARGYLE,  36.819500, -76.306285
1647,EFFINGHAM & PORTSMOUTH,  36.819499, -76.306010
1650,GEORGE WASHINGTON & CHANNING,  36.801724, -76.323191
1685,HIGH & WASHINGTON,  36.835157, -76.303224
1686,HIGH & TWINE,  36.835029, -76.316907
1687,HIGH & EFFINGHAM,  36.835244, -76.307375
1690,HIGH & CHESTNUT,  36.835051, -76.308148
1691,HIGH & ELM,  36.834994, -76.312047
1692,HIGH & DINWIDDIE,  36.835187, -76.302106
1693,HIGH & WILLIAMSBURG,  36.834945, -76.319801
1694,HIGH & YORKTOWN,  36.834884, -76.322455
1695,HIGH & POTOMAC,  36.834467, -76.340448
1696,HIGH & CUMBERLAND,  36.834400, -76.343721
1697,HIGH & RODMAN,  36.835802, -76.347590
1698,HIGH & WILLETT,  36.837440, -76.350220
1699,HIGH & GRAYSON,  36.840202, -76.355552
1700,HIGH & SEAGROVE,  36.845510, -76.369046
1701,HIGH & SHIRLEY,  36.846835, -76.371610
1702,HIGH & GRAYSON,  36.840385, -76.356258
1703,HIGH & DOGWOOD,  36.857743, -76.387167
1704,HIGH & BON SECOURS,  36.859669, -76.390078
1705,HIGH & SHIRLEY,  36.846856, -76.371869
1706,HIGH & BON SECOURS,  36.859637, -76.389822
1707,HIGH & REESE,  36.854044, -76.382278
1708,HIGH & FERGUSON,  36.854564, -76.382763
1709,HIGH & CEDAR,  36.852363, -76.379721
1710,HIGH & STERLING POINT,  36.851583, -76.378826
1711,HIGH & ORANGE,  36.838967, -76.353106
1712,HIGH & WILLIAMSBURG,  36.834823, -76.320575
1713,HIGH & LOUDOUN,  36.834271, -76.343656
1714,HIGH & JAMESTOWN,  36.834727, -76.324189
1715,HIGH & COURT,  36.835370, -76.301175
1716,HIGH & WASHINGTON,  36.835314, -76.304365
1717,HIGH & CHESTNUT,  36.835213, -76.308805
1725,ELM & SOUTH,  36.830845, -76.312830
1726,ELM & DUKE,  36.827518, -76.312653
1727,LINCOLN & CAMDEN,  36.824484, -76.313596
1729,LINCOLN & CHARLESTON,  36.824387, -76.316830
1730,LINCOLN & DES MOINES,  36.824332, -76.318623
1731,LINCOLN & AZALEA,  36.824274, -76.320381
1734,LINCOLN & NASHVILLE,  36.824164, -76.324095
1735,COLUMBUS & DALE,  36.823692, -76.325134
1736,COLUMBUS & PALMER,  36.822691, -76.325091
1737,COLUMBUS & DALE,  36.821206, -76.325017
1738,DEEP CREEK & GRAHAM,  36.818337, -76.325832
1739,DEEP CREEK & PORTSMOUTH,  36.816020, -76.329099
1740,DEEP CREEK & BALDWIN,  36.813336, -76.328646
1741,DEEP CREEK & CHARLES,  36.811374, -76.327705
1742,DEEP CREEK & BENTON,  36.809637, -76.328888
1743,GREENWOOD & MAUPIN,  36.806426, -76.333156
1744,GREENWOOD & PARADISE,  36.805790, -76.343863
1752,MCLEAN & COLLEGE,  36.807047, -76.348020
1754,GREENWOOD & PARADISE,  36.805573, -76.343759
1755,GREENWOOD & INDEPENDENCE,  36.806171, -76.335625
1756,GREENWOOD & MAUPIN,  36.806382, -76.331964
1757,GREENWOOD & DEEP CREEK,  36.806490, -76.329228
1758,DEEP CREEK & BENTON,  36.808953, -76.329017
1759,DEEP CREEK & EDISON,  36.812792, -76.328171
1760,DEEP CREEK & PENNOCK,  36.815066, -76.329329
1761,DEEP CREEK & FREDERICK,  36.817709, -76.326836
1762,COLUMBUS & LEXINGTON,  36.820080, -76.324448
1763,COLUMBUS & JEFFERSON,  36.821559, -76.324913
1764,COLUMBUS & PALMER,  36.822513, -76.324966
1765,COLUMBUS & LINCOLN,  36.823817, -76.325020
1766,LINCOLN & NASHVILLE,  36.824064, -76.324317
1767,LINCOLN & EVERGREEN,  36.824091, -76.323393
1768,LINCOLN & DEEP CREEK,  36.824155, -76.321498
1769,LINCOLN & AZALEA,  36.824174, -76.320602
1770,LINCOLN & PIEDMONT,  36.824205, -76.319382
1771,LINCOLN & LANSING,  36.824265, -76.317599
1772,LINCOLN & RICHMOND,  36.824309, -76.316176
1773,LINCOLN & CAMDEN,  36.824405, -76.312703
1774,ELM & RANDOLPH,  36.825819, -76.312417
1775,ELM & SOUTH,  36.830667, -76.312653
1780,GEORGE WASHINGTON & VICTORY,  36.793869, -76.328283
1781,GEORGE WASHINGTON & WINTERGREEN,  36.790589, -76.330622
1784,CAMELOT & GEORGE WASHINGTON,  36.779843, -76.337432
1785,KING AUTHUR & AARON,  36.783238, -76.346629
1786,AARON & GAUNTLET,  36.784736, -76.351146
1787,AARON & SIR GALAHAD,  36.784279, -76.354068
1788,AARON & SIR KAY,  36.783574, -76.358065
1789,SIR LANCELOT & CAMELOT,  36.781389, -76.359083
1790,SIR LANCELOT & MOAT,  36.779242, -76.358086
1791,GUENEVERE & SIR MELIOT,  36.779429, -76.350630
1792,GUENEVERE & SIR GAWAINE,  36.778937, -76.348076
1793,KING ARTHUR & ERIC,  36.780250, -76.347116
1794,CAMELOT & CASTLE,  36.781361, -76.345224
1795,CANAL & BROADMOOR,  36.773298, -76.324572
1798,MILITARY & CANADIAN,  36.776937, -76.269517
1800,MILITARY & CANADIAN,  36.777223, -76.269488
1801,CANAL & MILITARY,  36.773731, -76.324496
1802,GILMERTON & ALBERT,  36.779834, -76.331387
1804,PORTSMOUTH & RODMAN,  36.815606, -76.342270
1805,GEORGE WASHINGTON & DELWOOD,  36.787812, -76.332313
1806,GEORGE WASHINGTON & WINTERGREEN,  36.790352, -76.330577
1807,PORTSMOUTH & ROANOKE,  36.817946, -76.321462
1808,PORTSMOUTH & COLUMBUS,  36.817466, -76.323781
1809,PORTSMOUTH & DAHLIA (far),  36.816216, -76.331676
1810,PORTSMOUTH & ARCADIA,  36.816037, -76.334183
1811,PORTSMOUTH & MAGNOLIA,  36.815922, -76.336260
1813,PORTSMOUTH & TRUXTON,  36.815751, -76.339604
1815,PORTSMOUTH & DEEP CREEK,  36.816460, -76.328110
1816,PORTSMOUTH & TRUXTON,  36.815664, -76.339589
1818,GATEWAY & TWIN PINES,  36.874742, -76.399821
1819,CHURCHLAND & TYRE NECK,  36.862264, -76.393365
1820,TOWNE POINT & DUNKIRK,  36.866950, -76.400085
1823,TOWNE POINT & MAGNOLIA,  36.873754, -76.409262
1824,TOWNE POINT & PINEBARK,  36.874064, -76.405568
1825,TOWNE POINT & PEPPERWOOD,  36.872987, -76.402178
1826,TOWNE POINT & DUNKIRK,  36.866792, -76.400147
1827,CHURCHLAND & TOWNPOINT,  36.865309, -76.398998
1828,TOWNE POINT & YAUPON,  36.873968, -76.412496
1830,POINDEXTER & B,  36.819057, -76.272602
1831,POINDEXTER & JACKSON,  36.818377, -76.273709
1832,POINDEXTER & RODGERS,  36.817818, -76.274831
1833,POINDEXTER & STEWART,  36.816597, -76.277015
1834,BAINBRIDGE & OHIO,  36.814574, -76.278631
1835,BAINBRIDGE & JEFFERSON,  36.813606, -76.278440
1836,BAINBRIDGE & HOLLY,  36.809774, -76.277647
1837,BAINBRIDGE & BYRD,  36.808903, -76.277451
1838,BAINBRIDGE & LESTER,  36.807699, -76.277151
1839,BAINBRIDGE & HUGHES,  36.806119, -76.276692
1840,BAINBRIDGE & BEECH,  36.804473, -76.276258
1841,BAINBRIDGE & HARVARD,  36.797359, -76.277348
1842,BAINBRIDGE & ROWLAND,  36.796091, -76.277880
1843,BAINBRIDGE & HILL,  36.791888, -76.279605
1844,BAINBRIDGE & ROSEMONT,  36.790260, -76.280271
1845,BAINBRIDGE & GODWIN,  36.788179, -76.281094
1846,BAINBRIDGE & BURROW,  36.785769, -76.282052
1847,BAINBRIDGE & YAGER,  36.780489, -76.284142
1848,LIBERTYVILLE & BAINBRIDGE,  36.757222, -76.284143
1849,LIBERTYVILLE & CHANNEL,  36.757128, -76.280604
1851,CAMPOSTELLA & WADENA,  36.772838, -76.271078
1852,CAMPOSTELLA & LINDALE,  36.776804, -76.267868
1855,CAMPOSTELLA & LINDALE,  36.777007, -76.267848
1856,CAMPOSTELLA & CAROLYN,  36.775294, -76.269200
1857,CAMPOSTELLA & BURNS,  36.772395, -76.271474
1859,MAINS CREEK & GREAT BRIDGE,  36.755306, -76.272627
1860,LIBERTYVILLE & CHANNEL,  36.757221, -76.280373
1861,BAINBRIDGE & OUTLAW,  36.762813, -76.288570
1862,BAINBRIDGE & GREAT BRIDGE,  36.769383, -76.288403
1863,BAINBRIDGE & MCCLOUD,  36.772953, -76.286954
1864,BAINBRIDGE & YAGER,  36.780490, -76.284027
1865,BAINBRIDGE & BURROW,  36.785563, -76.281968
1866,BAINBRIDGE & ROSEMONT,  36.790040, -76.280160
1867,BAINBRIDGE & FRANKLIN,  36.792722, -76.279119
1869,BAINBRIDGE & CHESAPEAKE,  36.805260, -76.276310
1870,BAINBRIDGE & HUGHES,  36.805962, -76.276519
1871,BAINBRIDGE & WILBUR,  36.808012, -76.277068
1872,BAINBRIDGE & JEFFERSON,  36.813446, -76.278274
1873,BAINBRIDGE & OHIO,  36.814946, -76.278569
1874,POINDEXTER & DECATUR,  36.817168, -76.276137
1875,POINDEXTER & JACKSON,  36.818532, -76.273123
1876,LIBERTYVILLE & BAINBRIDGE,  36.757154, -76.287705
1877,PORTSMOUTH & ROYAL,  36.815818, -76.336574
1878,PORTSMOUTH & ARCADIA,  36.815926, -76.334398
1880,PORTSMOUTH & EVERGREEN (Pines),  36.817675, -76.322185
1882,PORTSMOUTH & DES MOINES,  36.818455, -76.318586
1883,PORTSMOUTH & BEECH,  36.819082, -76.315503
1884,PORTSMOUTH & OAK,  36.819328, -76.313839
1885,PORTSMOUTH & ELM,  36.819154, -76.311264
1886,PORTSMOUTH & PEACH,  36.818748, -76.308791
1904,AIRLINE & QUAILSHIRE,  36.793789, -76.401078
1905,AIRLINE & MAPLEFIELD,  36.797464, -76.396319
1910,OCEAN VIEW & 2ND BAY,  36.935500, -76.214340
1911,HAMPTON & 38TH,  36.879358, -76.302228
1912,PRINCESS ANNE & VINCENT,  36.859546, -76.250452
1913,BEST SQUARE,  36.848803, -76.211517
1914,MCLEAN & BELMONT,  36.811105, -76.352355
1915,AIRLINE & CHOWAN,  36.810779, -76.364498
1916,AIRLINE & CITY PARK 1,  36.808840, -76.369926
1917,AIRLINE & CITY PARK 2,  36.808308, -76.371539
1918,AIRLINE & LANCER,  36.806622, -76.377216
1919,AIRLINE & ELMHURST,  36.805079, -76.382484
1920,AIRLINE & AHOY,  36.799728, -76.392731
1921,AIRLINE & HOLLEY COVE,  36.797376, -76.396676
1922,SUNKIST & AIRLINE,  36.792940, -76.402030
1923,AIRLINE & BROOKESHIRE,  36.796536, -76.397882
1924,AIRLINE & AHOY,  36.799565, -76.392770
1925,AIRLINE & ELMHURST,  36.805640, -76.380172
1926,AIRLINE & LANCER,  36.806482, -76.377265
1927,AIRLINE & CITY PARK,  36.808345, -76.371004
1928,AIRLINE & HYMAN,  36.811116, -76.363131
2000,NEWPORT NEWS TRANSFER CENTER,  36.983389, -76.433966
2001,WASHINGTON & 29TH,  36.980577, -76.432177
2002,WASHINGTON & 26TH,  36.978555, -76.430928
2003,25TH & HUNTINGTON,  36.978081, -76.429267
2004,25TH & JEFFERSON,  36.981562, -76.420502
2006,25TH & MARSHALL,  36.983446, -76.415749
2007,25TH & WICKHAM,  36.984519, -76.413036
2009,25TH & ROANOKE,  36.986322, -76.408559
2010,25TH & OAK,  36.988182, -76.403762
2011,25TH & PARISH,  36.989323, -76.401018
2012,25TH & BUXTON,  36.990736, -76.397509
2015,25TH & HICKORY,  36.993362, -76.394445
2016,KECOUGHTAN & PEAR,  36.994489, -76.393094
2017,KECOUGHTAN & LOCUST,  36.996221, -76.391087
2018,KECOUGHTAN & HOLLYWOOD,  36.997929, -76.389006
2020,KECOUGHTAN & ROBINSON,  37.000981, -76.381530
2021,KECOUGHTAN & WYTHE,  37.002154, -76.379428
2024,KECOUGHTAN & OCANOE,  37.004671, -76.374565
2025,KECOUGHTAN & RALEIGH,  37.005694, -76.372623
2026,KECOUGHTAN & HAMPTON ROADS,  37.007139, -76.369949
2028,KECOUGHTAN & ALGONQUIN,  37.007667, -76.365221
2030,KECOUGHTAN & LASALLE,  37.008265, -76.358973
2032,KECOUGHTAN & ARMSTRONG,  37.009429, -76.355234
2033,KECOUGHTAN & ELIZABETH,  37.010774, -76.353027
2034,KECOUGHTAN & IVY HOME,  37.012675, -76.352884
2036,KECOUGHTAN & SUNSET,  37.016233, -76.352802
2038,KECOUGHTAN & VICTORIA,  37.020309, -76.352476
2040,KECOUGHTAN & CHAPEL,  37.023552, -76.352231
2041,LAFAYETTE & LENS,  36.875975, -76.256823
2042,PEMBROKE & CYPRESS,  37.033138, -76.330070
2045,EATON & MILL POINT,  37.027373, -76.341813
2046,KING & PEMBROKE,  37.029513, -76.345109
2047,HAMPTON TRANSFER CENTER (HTC),  37.030652, -76.346709
2048,KING & HUFFMAN,  37.035906, -76.347077
2050,KING & RIP RAP,  37.039446, -76.348096
2051,KING & PLAZA,  37.041673, -76.348277
2052,SALEM & DOOLITTLE,  37.044165, -76.350982
2053,DOOLITTLE & LANGLEY SQUARE,  37.044446, -76.354189
2054,DOOLITTLE & SELDENDALE,  37.044595, -76.358585
2056,ARMISTEAD & LAKE HAMPTON,  37.036385, -76.366892
2057,ARMISTEAD & WESTMINSTER,  37.039448, -76.373058
2059,PINE CHAPEL & BARRACK,  37.039890, -76.378428
2060,SAVILLE & PINE CHAPEL,  37.038480, -76.381884
2061,SAVILLE & WALMART,  37.040369, -76.382887
2062,1ST VIEW & A VIEW,  36.954939, -76.254865
2064,CUNNINGHAM & COLISEUM,  37.046848, -76.391829
2065,1ST VIEW & SAINT GEORGE,  36.947900, -76.264247
2066,1ST VIEW & BAY,  36.945127, -76.270562
2067,CUNNINGHAM & SLOOP,  37.042131, -76.402139
2068,TODDS & MERCURY,  37.039812, -76.403073
2069,POWER PLANT & MERCURY,  37.037896, -76.400454
2070,QUEEN & WEAVER,  37.035470, -76.398040
2071,WEAVER & ROXBURY,  37.034173, -76.400348
2072,WEAVER & ABERDEEN,  37.032181, -76.404450
2074,WEAVER & MARY PEAKE,  37.031802, -76.408340
2075,WEAVER & TWIN OAKS,  37.031297, -76.410687
2077,WEAVER & BIG BETHEL,  37.027002, -76.419300
2079,WEAVER & MARTHA LEE,  37.024936, -76.423222
2081,79TH & CHESTNUT,  37.022937, -76.427773
2082,79TH & ROANOKE,  37.021400, -76.431596
2083,79TH & ORCUTT,  37.020739, -76.433235
2084,1ST VIEW & BAY,  36.945043, -76.270503
2085,1ST VIEW & SAINT GEORGE,  36.948201, -76.263317
2086,1ST VIEW & PORTVIEW,  36.955092, -76.254562
2088,MERCURY & NEWMARKET NORTH,  37.020935, -76.441747
2089,WARWICK & 75TH,  37.014549, -76.448478
2090,73RD & WARWICK,  37.012523, -76.447892
2091,EATON & MILL POINT,  37.027212, -76.342127
2092,PARISH & 26TH,  36.989719, -76.401077
2100,73RD & BELVEDERE,  37.011899, -76.449464
2101,75TH & RIVER,  37.013101, -76.451276
2102,75TH & WARWICK,  37.014255, -76.448421
2103,WARWICK & REBEL,  37.015245, -76.448749
2104,MERCURY & JEFFERSON,  37.020144, -76.442657
2106,79TH & MARSHALL,  37.019057, -76.436972
2107,79TH & ORCUTT,  37.020518, -76.433343
2108,79TH & ROANOKE,  37.021347, -76.431291
2109,79TH & CHESTNUT,  37.022995, -76.427044
2110,79TH & MERRIMAC,  37.023521, -76.425785
2111,WEAVER & MARTHA LEE,  37.024824, -76.423052
2113,WEAVER & BIG BETHEL,  37.027016, -76.418812
2114,WEAVER & WOODBURY FOREST,  37.029239, -76.414339
2116,WEAVER & TWIN OAKS,  37.031148, -76.410547
2117,WEAVER & MARY PEAKE,  37.031615, -76.408156
2118,WEAVER & LANGSTON,  37.032026, -76.403784
2119,WEAVER & CALVARY,  37.033515, -76.400869
2120,CORPREW & MADISON,  36.850488, -76.265087
2121,POWER PLANT & MERCURY,  37.037962, -76.400093
2122,TODDS & MERCURY,  37.039697, -76.402725
2123,CUNNINGHAM & WATERFORD,  37.041772, -76.402192
2125,CUNNINGHAM & COLISEUM,  37.046585, -76.391534
2126,COLISEUM & MERCHANT,  37.044756, -76.390194
2128,PRINCESS ANNE & AZALEA GARDEN,  36.866998, -76.233707
2129,PINE CHAPEL & FREEMAN,  37.038555, -76.380127
2130,PINE CHAPEL & ARMISTEAD,  37.040608, -76.377001
2131,ARMISTEAD & FINDLEY,  37.039080, -76.373033
2132,ARMISTEAD & LAKE HAMPTON,  37.035875, -76.366589
2133,LASALLE & ARMISTEAD,  37.035387, -76.362648
2134,KING & LANGLEY,  37.041542, -76.348476
2135,KING & RIP RAP,  37.039619, -76.348318
2136,KING & KEMPTON,  37.036054, -76.347316
2137,KING & PEMBROKE,  37.029566, -76.345445
2138,VIRGINIA BEACH & POPLAR HALL,  36.855179, -76.198405
2139,BALLENTINE & VIRGINIA BEACH,  36.853326, -76.248098
2140,BALLENTINE & VIRGINIA BEACH,  36.853348, -76.248343
2141,KECOUGHTAN & NEWPORT NEWS,  37.021894, -76.352560
2142,KECOUGHTAN & VICTORIA,  37.020362, -76.352658
2144,KECOUGHTAN & SUNSET,  37.016437, -76.352982
2146,KECOUGHTAN & IVY HOME,  37.012752, -76.353090
2147,KECOUGHTAN & CLYDE,  37.010579, -76.353378
2149,KECOUGHTAN & REGENT,  37.009243, -76.356265
2151,KECOUGHTAN & EAST,  37.008139, -76.361444
2153,KECOUGHTAN & ALGONQUIN,  37.007824, -76.366117
2155,KECOUGHTAN & HAMPTON ROADS,  37.007356, -76.369835
2157,KECOUGHTAN & LITTLE FARMS,  37.005602, -76.373137
2158,KECOUGHTAN & POWHATAN,  37.003862, -76.376434
2159,KECOUGHTAN & WYTHE,  37.002068, -76.379929
2160,KECOUGHTAN & ROBINSON,  37.000901, -76.381925
2161,KECOUGHTAN & CLIFTON,  36.999508, -76.385016
2162,KECOUGHTAN & HOLLYWOOD,  36.997891, -76.389349
2163,KECOUGHTAN & LOCUST,  36.996458, -76.391067
2164,KECOUGHTAN & PEAR,  36.994792, -76.393022
2165,25TH & HICKORY,  36.993619, -76.394410
2166,25TH & MAPLE,  36.992395, -76.395856
2167,25TH & BUXTON,  36.990603, -76.397960
2168,26TH & OAK,  36.988936, -76.404479
2169,26TH & CHESTNUT,  36.988058, -76.406692
2170,26TH & ROANOKE,  36.986971, -76.409333
2172,26TH & WICKHAM,  36.985227, -76.413735
2173,26TH & MARSHALL,  36.984299, -76.416005
2175,26TH & JEFFERSON,  36.982148, -76.421412
2176,26TH & WASHINGTON,  36.978452, -76.430666
2177,WASHINGTON & 29TH,  36.980172, -76.431795
2178,WASHINGTON & 32ND,  36.982158, -76.433021
2181,KECOUGHTAN & PIEDMONT,  36.999604, -76.384305
2182,WEAVER & WOODBURY FORREST,  37.028634, -76.415917
2183,MALLORY & AL,  37.037236, -76.298606
2200,POWER PLANT & QUEEN,  37.037223, -76.397970
2202,QUEEN & C C SPAULDING,  37.032602, -76.393635
2203,QUEEN & INDEPENDENCE,  37.025950, -76.383925
2204,QUEEN & INLANDVIEW,  37.025302, -76.381131
2205,QUEEN & SALTERS CREEK,  37.023787, -76.375919
2206,QUEEN & ADRIAN,  37.023755, -76.374482
2207,QUEEN & MCDONALD,  37.025659, -76.370167
2208,QUEEN & MICHIGAN,  37.025983, -76.367730
2209,MICHIGAN & QUEEN,  37.026968, -76.366759
2210,MICHIGAN & QUEEN 2,  37.028767, -76.366870
2211,LASALLE & GEORGIA,  37.028534, -76.363008
2212,QUEEN & PATTERSON,  37.025997, -76.361356
2214,QUEEN & MAPLEWOOD,  37.025941, -76.358043
2216,QUEEN & STEWART,  37.025769, -76.354056
2217,PEMBROKE & WINE,  37.030315, -76.344278
2219,PEMBROKE & CENTER,  37.030892, -76.341211
2221,PEMBROKE & HOLLY,  37.032918, -76.333754
2223,PEMBROKE & CYPRESS,  37.033005, -76.329823
2224,MERCURY & OLD POINT,  37.031248, -76.324893
2226,MERCURY & WOODLAND,  37.027889, -76.323800
2227,WOODLAND & OLD BUCKROE,  37.025668, -76.324945
2228,PEMBROKE & HOLLY,  37.033059, -76.333536
2230,MALLORY & MERCURY,  37.021241, -76.318535
2231,BLACK & MCCLELLAN (VA),  37.015954, -76.332954
2233,GREENWOOD & SUNRISE,  36.800298, -76.366724
2234,ROOSEVELT & STRATFORD,  36.792913, -76.355885
2235,MCCLELLAN & HARRIS,  37.017782, -76.332305
2236,EMANCIPATION & MARSHALL,  37.022555, -76.330777
2237,VICTORY & DEEP CREEK,  36.796151, -76.334706
2238,PEMBROKE & OAKCREST,  37.036171, -76.317320
2239,TODDS & LYNNHAVEN,  37.040340, -76.407599
2240,COUNTY & FRISSELL,  37.022165, -76.325835
2244,MALLORY & WILLIAMS,  37.017714, -76.323800
2247,MALLORY & SEWELL,  37.020620, -76.319012
2248,PEMBROKE & MERCURY,  37.033161, -76.324049
2249,COUNTY & MALLORY,  37.019248, -76.321565
2251,MERCURY & WOODLAND,  37.027889, -76.323456
2253,MERCURY & OLD POINT,  37.031087, -76.324585
2254,ELM & DUKE,  36.827575, -76.312510
2255,PEMBROKE & CALHOUN,  37.033200, -76.327172
2259,ARMISTEAD & QUEEN,  37.025802, -76.349531
2261,QUEEN & STEWART,  37.025852, -76.353270
2262,QUEEN & BACKRIVER,  37.026039, -76.356271
2265,QUEEN & PATTERSON,  37.026124, -76.361112
2267,MICHIGAN & LASALLE,  37.028907, -76.367051
2268,MICHIGAN & QUEEN,  37.027040, -76.367271
2269,QUEEN & MICHIGAN,  37.026214, -76.368240
2271,QUEEN & RED ROBIN,  37.024953, -76.372312
2272,QUEEN & ADRIAN,  37.023865, -76.375368
2274,QUEEN & INLANDVIEW (Tidewater Apt.),  37.025783, -76.381945
2275,QUEEN & BUCKINGHAM,  37.026059, -76.385065
2276,AIRLINE & HYMAN,  36.811245, -76.363232
2277,POWER PLANT & PINE CHAPEL,  37.034254, -76.392101
2278,AIRLINE & WESTGATE PLAZA,  36.809847, -76.366832
2279,EXECUTIVE & CUNNINGHAM,  37.046406, -76.396317
2281,EXECUTIVE & MARCELLA,  37.049780, -76.397550
2282,MARCELLA & HARTFORD,  37.050089, -76.396225
2283,COLISEUM & MARCELLA,  37.049490, -76.391639
2284,AIRLINE & CHOWAN,  36.810685, -76.364235
2285,BOUNDARY & ARMISTEAD,  37.276369, -76.708294
2286,COLONIAL & 23RD,  36.870198, -76.291497
2287,COLONIAL & 22ND,  36.870130, -76.291257
2288,BALLENTINE & PRINCESS ANNE,  36.859109, -76.249530
2289,WOODLAND & OLD BUCKROE,  37.025152, -76.325110
2290,MALLORY & KELLY,  37.022557, -76.316182
2292,MALLORY & SHERWOOD,  37.025892, -76.313523
2294,MALLORY & PRIMROSE,  37.029059, -76.311002
2295,MALLORY & BERKLEY,  37.030481, -76.308968
2297,MALLORY & SARGEANT,  37.032656, -76.305637
2298,MALLORY & DARBY,  37.034302, -76.303169
2299,MALLORY & RUST,  37.036035, -76.300507
2300,28TH & HUNTINGTON,  36.980262, -76.429773
2301,JEFFERSON & 28TH,  36.983928, -76.422563
2303,JEFFERSON & 32ND,  36.986149, -76.423929
2304,JEFFERSON & 35TH,  36.987632, -76.424841
2305,35TH & MADISON,  36.988867, -76.422406
2306,35TH & MARSHALL,  36.989864, -76.419679
2307,35TH & WICKHAM,  36.991003, -76.417036
2309,35TH & ROANOKE,  36.992663, -76.412675
2310,35TH & CHESTNUT,  36.993546, -76.410394
2312,35TH & ACORN,  36.996011, -76.407616
2313,SHELL & PARRISH,  36.997631, -76.405848
2315,PEMBROKE & ABERDEEN,  37.001568, -76.402178
2317,PEMBROKE & CHILDS,  37.004857, -76.397323
2318,PEMBROKE & GREENBRIAR,  37.006545, -76.394701
2319,G & PEMBROKE,  37.007937, -76.391313
2321,G & SHELL,  37.004161, -76.389544
2323,SHELL & ROBINSON,  37.004998, -76.385682
2325,SHELL & CHESTERFIELD,  37.007214, -76.382131
2326,SHELL & POWHATAN,  37.008200, -76.380550
2327,SHELL & WINONA (Shell Apts.),  37.009507, -76.378447
2330,SHELL & RALEIGH,  37.012059, -76.374335
2332,VICTORIA & ALLEGHANY,  37.012168, -76.368394
2333,VICTORIA & ALGONQUIN,  37.013456, -76.365961
2334,VICTORIA & HOMESTEAD,  37.014420, -76.364274
2335,LASALLE & ERVIN,  37.017197, -76.361536
2336,SHELL & LASALLE,  37.019457, -76.362555
2338,SHELL & NEWPORT NEWS,  37.021917, -76.358760
2339,NEWPORT NEWS & BACK RIVER,  37.021833, -76.356188
2341,BALLENTINE & PRINCESS ANNE,  36.859129, -76.249413
2342,NEWPORT NEWS & BACK RIVER,  37.022056, -76.357106
2344,SHELL & LASALLE,  37.019645, -76.362615
2345,LASALLE & MOORE,  37.017760, -76.362154
2346,VICTORIA & HOMESTEAD,  37.014775, -76.364135
2347,VICTORIA & ALGONQUIN,  37.013617, -76.366365
2348,VICTORIA & COLONIAL,  37.011930, -76.369346
2349,HAMPTON ROADS & SHELL,  37.013983, -76.370945
2351,SHELL & GARY,  37.012033, -76.374755
2352,SHELL & CELEY,  37.010583, -76.376943
2353,SHELL & WINONA (Shell Apts),  37.009727, -76.378399
2354,SHELL & POWHATAN,  37.008499, -76.380339
2355,SHELL & DALE,  37.007242, -76.382398
2356,SHELL & MARYLAND,  37.006101, -76.384116
2357,SHELL & KENTUCKY,  37.005217, -76.385589
2358,SHELL & PENNSYLVANIA,  37.004500, -76.387274
2359,G & MIMOSA,  37.005060, -76.389718
2361,G & PEMBROKE,  37.008488, -76.391698
2362,PEMBROKE & PLUM,  37.006388, -76.395200
2363,PEMBROKE & CHILDS,  37.004810, -76.397686
2364,PEMBROKE & ABERDEEN,  37.001857, -76.402242
2367,SHELL & PARRISH,  36.997523, -76.406119
2368,35TH & ACORN,  36.996208, -76.407552
2370,35TH & CHESTNUT,  36.993658, -76.410630
2371,35TH & ROANOKE,  36.992688, -76.412939
2373,35TH & WICKHAM,  36.991165, -76.416887
2374,35TH & MARSHALL,  36.990058, -76.419554
2375,36TH & MADISON,  36.989636, -76.422635
2376,36TH & JEFFERSON,  36.988586, -76.425265
2378,JEFFERSON & 32ND,  36.986015, -76.423978
2380,JEFFERSON & 29TH,  36.983835, -76.422633
2381,POWER PLANT & PINE CHAPEL,  37.033224, -76.391938
2382,POWER PLANT & QUEEN,  37.037390, -76.399454
2400,WICKHAM & 26TH,  36.985232, -76.413253
2401,WICKHAM & 28TH,  36.986824, -76.414247
2403,30TH & ORCUTT,  36.988332, -76.413458
2404,30TH & ROANOKE,  36.989287, -76.411079
2407,CHESTNUT & 33RD,  36.992339, -76.409417
2408,ROANOKE & 37TH,  36.993830, -76.413706
2409,ROANOKE & 41ST,  36.996433, -76.415229
2410,ROANOKE & 44TH,  36.998305, -76.416460
2411,44TH & ORCUTT,  36.997605, -76.418772
2413,41ST & NEWSOME,  36.994795, -76.419565
2414,41ST & MARSHALL,  36.994407, -76.420792
2415,MARSHALL & 44TH (New. Pk. ES),  36.996675, -76.423719
2416,MARSHALL & 48TH,  36.998723, -76.424989
2417,MARSHALL & TIMBER,  37.001094, -76.426407
2419,MARSHALL & GLOUCESTER,  37.003474, -76.427876
2421,MARSHALL & RICHARDS,  37.007067, -76.430025
2423,MARSHALL & HILTON,  37.010888, -76.432495
2424,MARSHALL & 72ND,  37.013585, -76.434190
2425,MARSHALL & 74TH,  37.015294, -76.435247
2427,74TH & ORCUTT,  37.016947, -76.431155
2429,ROANOKE & 76TH,  37.019177, -76.429606
2430,76TH & CHESTNUT,  37.020661, -76.425891
2431,LASSITER & MARTHA LEE 1,  37.021826, -76.422132
2432,QUEEN & WEAVER,  37.035222, -76.397958
2433,GUST & MARCY,  36.795335, -76.347700
2434,JEFFERSON & MERCURY,  37.018607, -76.443928
2436,76TH & MARTHA LEE,  37.021858, -76.422371
2437,76TH & CHESTNUT,  37.020757, -76.426156
2438,ROANOKE & 75TH,  37.018715, -76.429443
2439,74TH & ORCUTT,  37.017139, -76.431034
2441,MARSHALL & 72ND,  37.013776, -76.434422
2442,MARSHALL & HILTON,  37.011075, -76.432784
2444,MARSHALL & RICHARD,  37.007002, -76.430210
2445,GUST & MARCY,  36.795210, -76.347328
2448,MARSHALL & GLOUCESTER,  37.003570, -76.428138
2449,MARSHALL & NANSEMOND,  37.001308, -76.426736
2450,MARSHALL & 48TH,  36.998395, -76.424919
2451,MARSHALL & 44TH,  36.995836, -76.423325
2452,41ST & MARSHALL,  36.993955, -76.421440
2453,41ST & NEWSOME,  36.994957, -76.419413
2455,ORCUTT & 43RD,  36.996764, -76.418484
2456,ROANOKE & 41ST,  36.996501, -76.415611
2458,ROANOKE & 37TH,  36.993887, -76.413902
2459,CHESTNUT & 32ND,  36.991228, -76.408854
2460,30TH & CHESTNUT,  36.990351, -76.408427
2461,28TH & CHESTNUT,  36.989168, -76.407908
2462,28TH & ROANOKE,  36.988216, -76.410166
2463,28TH & ORCUTT,  36.987140, -76.413008
2476,GUST & BUNCHE,  36.797165, -76.350094
2477,ABERDEEN & DAVIS,  37.028653, -76.405370
2479,ABERDEEN & GRANGER,  37.025350, -76.404876
2480,ABERDEEN & WINGFIELD,  37.021458, -76.404326
2482,BRIARFIELD & ABERDEEN,  37.018659, -76.405589
2484,BRIARFIELD & BIG BETHEL,  37.016975, -76.411740
2485,BRIARFIELD & JANET,  37.015871, -76.413028
2486,BRIARFIELD & BRIARWOOD,  37.014460, -76.414770
2487,BRIARFIELD & POTOMAC,  37.013431, -76.417200
2488,BRIARFIELD & OLD CHESTNUT,  37.012591, -76.419696
2489,BRIARFIELD & CHESTNUT,  37.011460, -76.422060
2490,BRIARFIELD & ROANOKE,  37.010667, -76.423990
2491,BRIARFIELD & ORCUTT,  37.009664, -76.426395
2493,GUST & BUNCHE,  36.797007, -76.349764
2495,MADISON & 46TH,  36.995724, -76.426623
2497,MADISON & 42ND,  36.993485, -76.425225
2498,MADISON & 40TH,  36.992205, -76.424424
2500,WASHINGTON & 37TH,  36.985499, -76.435211
2502,JEFFERSON & 25TH,  36.980849, -76.420787
2504,HAMPTON & JEFFERSON,  36.978982, -76.418816
2505,HAMPTON & MADISON,  36.979794, -76.416842
2506,HAMPTON & MARSHALL,  36.980873, -76.414138
2507,HAMPTON & WICKHAM,  36.981952, -76.411466
2509,WICKHAM & 18TH,  36.979588, -76.409916
2510,WICKHAM & 16TH,  36.978335, -76.409132
2512,ROANOKE & 15TH,  36.979027, -76.404827
2514,ROANOKE & GARDEN,  36.977665, -76.402698
2515,GARDEN & ROANOKE,  36.979655, -76.400787
2516,GARDEN & 16TH,  36.981467, -76.400529
2517,16TH & CHESTNUT,  36.980913, -76.402300
2518,16TH & ROANOKE,  36.979885, -76.405000
2520,ROANOKE & 20TH,  36.982253, -76.406548
2522,HAMPTON & CHESTNUT,  36.984565, -76.404841
2523,HAMPTON & OAK,  36.985727, -76.402161
2524,HAMPTON & 19TH,  36.985049, -76.398303
2525,BLAIR & MULBERRY,  36.984199, -76.395792
2527,BLAIR & BUXTON,  36.986577, -76.392973
2528,MAPLE & BLAIR,  36.988778, -76.391175
2530,MAPLE & 25TH,  36.992197, -76.395782
2531,MAPLE & 27TH,  36.993449, -76.397442
2532,HAMPTON & WOODROW,  36.872414, -76.301424
2535,MAPLE & 19TH,  36.989809, -76.392753
2536,MAPLE & BLAIR,  36.988497, -76.390974
2537,BLAIR & CEDAR,  36.986176, -76.393607
2540,HAMPTON & 19TH,  36.985180, -76.399073
2542,HAMPTON & OAK,  36.985889, -76.402012
2543,HAMPTON & CHESTNUT,  36.984846, -76.404640
2545,ROANOKE & 20TH,  36.982422, -76.406783
2548,16TH & WICKHAM,  36.978320, -76.408933
2549,WICKHAM & 18TH,  36.979469, -76.409713
2551,WICKHAM & HAMPTON,  36.981995, -76.411277
2552,HAMPTON & MARSHALL,  36.981069, -76.414011
2553,HAMPTON & MADISON,  36.980004, -76.416700
2554,HAMPTON & JEFFERSON,  36.978957, -76.419418
2556,JEFFERSON & 25TH,  36.981351, -76.420970
2558,WASHINGTON & 37TH,  36.985380, -76.435005
2559,PORT CENTRE & LINCOLN,  36.826328, -76.299571
2560,MADISON & 42ND,  36.993366, -76.425016
2562,MADISON & 46TH,  36.995933, -76.426620
2565,BRIARFIELD & ORCUTT,  37.009464, -76.426532
2566,BRIARFIELD & ROANOKE,  37.010340, -76.424359
2567,BRIARFIELD & CHESTNUT,  37.011355, -76.421814
2568,BRIARFIELD & OLD CHESTNUT,  37.012358, -76.419819
2570,BRIARFIELD & BRIARWOOD,  37.014237, -76.414828
2572,BRIARFIELD & E,  37.017339, -76.411037
2574,BRIARFIELD & ABERDEEN,  37.018487, -76.406345
2575,ABERDEEN & BRIARFIELD,  37.019836, -76.403949
2576,ABERDEEN & WINGFIELD,  37.021754, -76.404221
2578,ABERDEEN & RUSSELL,  37.026562, -76.404927
2580,ABERDEEN & E. LEWIS,  37.030049, -76.405452
2581,ABERDEEN & WEAVER,  37.032681, -76.405841
2582,ABERDEEN & MERCURY,  37.035687, -76.408205
2583,ABERDEEN & TODDS,  37.039089, -76.409790
2584,PORT CENTRE & EDWARDS,  36.823036, -76.297623
2600,IVY & 6TH,  36.970699, -76.409230
2602,IVY & 12TH,  36.973619, -76.412450
2604,IVY & 16TH,  36.975734, -76.414798
2605,IVY & 19TH,  36.977377, -76.416606
2606,JEFFERSON & 20TH,  36.977689, -76.418700
2608,WASHINGTON & 42ND,  36.988590, -76.436993
2610,WASHINGTON & 46TH,  36.991111, -76.438548
2611,WASHINGTON & 49TH,  36.992832, -76.439627
2612,49TH & HUNTINGTON,  36.993962, -76.437441
2613,WARWICK & 51ST,  36.995979, -76.436740
2615,WARWICK & 55TH,  36.998473, -76.438270
2617,WARWICK & 60TH,  37.001605, -76.440227
2618,WARWICK & 63RD,  37.003575, -76.441424
2619,WARWICK & 66TH,  37.006124, -76.442999
2621,WARWICK & 71ST,  37.011199, -76.446198
2622,WARWICK & 73RD,  37.012819, -76.447264
2623,WARWICK & UNION,  37.019284, -76.451153
2624,WARWICK & LAFAYETTE,  37.022153, -76.452856
2625,WARWICK & NORTH,  37.024643, -76.454469
2628,WARWICK & RIVERMONT,  37.028569, -76.456883
2629,WARWICK & HOPKINS,  37.030803, -76.458194
2630,WARWICK & MAIN,  37.032693, -76.460692
2632,WARWICK & WESTOVER,  37.035482, -76.464709
2634,WARWICK & JAMES RIVER,  37.037589, -76.467078
2635,WARWICK & RIDGEWAY,  37.039649, -76.468630
2636,WARWICK & ELM,  37.042231, -76.471978
2637,HANBURY & BALLENTINE,  36.873328, -76.252616
2639,WARWICK & LOGAN,  37.046636, -76.473408
2640,WARWICK & HARPERSVILLE,  37.049072, -76.474694
2641,WARWICK & COPELAND,  37.052188, -76.478170
2643,WARWICK & MATTHEW,  37.055671, -76.481276
2645,PORT CENTRE & PREMIER PLACE,  36.821787, -76.296945
2647,WARWICK & SWEETBRIAR,  37.064136, -76.489925
2648,WARWICK & UNIVERSITY,  37.066525, -76.491854
2650,WARWICK & HIDEN,  37.069336, -76.492870
2652,WARWICK & MINTON,  37.072887, -76.493317
2654,WARWICK & WELLESLEY,  37.077285, -76.495055
2655,WARWICK & DEEP CREEK,  37.080074, -76.496874
2657,WARWICK & TURLINGTON,  37.083080, -76.497844
2658,NETTLES & WINTERHAVEN,  37.085455, -76.497613
2660,NETTLES & SANDPEBBLE,  37.089434, -76.495953
2663,NETTLES & GEORGIA,  37.101340, -76.502765
2665,NETTLES & OYSTER POINT,  37.104221, -76.505694
2666,OYSTER POINT & RADCLIFF,  37.106009, -76.506196
2668,OYSTER POINT & WATERMAN,  37.105085, -76.496575
2670,JEFFERSON & HQ,  37.107026, -76.495564
2671,OYSTER POINT & WATERMAN,  37.105262, -76.496299
2672,OYSTER POINT & ARBORETUM,  37.106190, -76.505992
2673,OYSTER POINT & WARWICK,  37.104890, -76.510214
2674,WARWICK & MENNON WOOD,  37.107928, -76.514576
2675,WARWICK & YOUNGS MILL,  37.110641, -76.516621
2676,WARWICK & COLONY 1,  37.112412, -76.517858
2677,WARWICK & COLONY 2,  37.114856, -76.519581
2679,WARWICK & CAMPBELL,  37.117977, -76.522284
2680,WARWICK & BLAND,  37.120716, -76.525839
2681,WARWICK & SHERWOOD,  37.123080, -76.528985
2682,WARWICK & CAMPBELL,  37.124566, -76.530878
2683,WARWICK & DENBIGH,  37.128553, -76.536157
2684,DENBIGH & DELOICE,  37.130610, -76.533634
2686,DENBIGH & JEFFERSON 1,  37.137766, -76.521176
2687,DENBIGH & JEFFERSON 2,  37.139119, -76.519123
2688,CHURCHLAND & TYRE NECK,  36.862204, -76.393473
2690,DENBIGH & RIDGEWOOD,  37.146073, -76.512966
2691,DENBIGH & OLD DENBIGH,  37.148559, -76.510780
2692,WOODSIDE & OLD DENBIGH,  37.149057, -76.505204
2693,DENBIGH & RIDGEWOOD,  37.146401, -76.513049
2695,DENBIGH & CEDARWOOD,  37.142442, -76.516572
2696,DENBIGH & JEFFERSON 1,  37.139533, -76.519202
2697,DENBIGH & JEFFERSON 2,  37.138071, -76.521082
2699,DENBIGH & POCAHANTAS,  37.132739, -76.531156
2700,DENBIGH & DELOICE,  37.130846, -76.533634
2701,WARWICK & ORIANA 1,  37.130765, -76.539016
2703,WARWICK & OLD COURTHOUSE,  37.133354, -76.543053
2704,WARWICK & BEECHMONT,  37.137485, -76.545636
2705,WARWICK & PAULS PARK,  37.140670, -76.546710
2706,WARWICK & CURTIS TIGNOR 1,  37.143318, -76.548173
2707,WARWICK & CHECED WAY,  37.145245, -76.549378
2709,WARWICK & THORNCLIFF,  37.151395, -76.553544
2710,WARWICK & WOODHAVEN,  37.154481, -76.555077
2712,WARWICK & ASHTON GREEN,  37.158300, -76.556598
2713,WARWICK & WARWICK LANDING,  37.160454, -76.556908
2714,WARWICK & WILLIAMSON,  37.163176, -76.556820
2715,WARWICK & LEES MILL,  37.169199, -76.562831
2716,FORT EUSTIS,  37.160492, -76.580250
2719,WARWICK & LEES MILL,  37.167969, -76.561544
2720,WARWICK & WILLIAMSON,  37.163393, -76.557233
2721,WARWICK & WARWICK LANDING,  37.159949, -76.557336
2723,WARWICK & HICKORY POINT,  37.156368, -76.556220
2724,WARWICK & WOODHAVEN,  37.154175, -76.555353
2725,WARWICK & THORNCLIFF,  37.151111, -76.553856
2727,WARWICK & CHECED WAY,  37.145199, -76.549841
2728,WARWICK & CURTIS TIGNOR,  37.142656, -76.548196
2729,WARWICK & BEXLEY PARK,  37.140760, -76.547140
2731,WARWICK & OLD COURTHOUSE,  37.132915, -76.543106
2732,WARWICK & ORIANA,  37.130399, -76.539187
2733,WARWICK & DENBIGH,  37.128265, -76.536309
2734,WARWICK & TABBS,  37.124721, -76.531712
2735,WARWICK & SHERWOOD,  37.122444, -76.528741
2736,WARWICK & BLAND,  37.119728, -76.525156
2737,WARWICK & CAMPBELL,  37.117889, -76.522781
2739,WARWICK & COLONY,  37.113392, -76.518981
2740,WARWICK & MENCHVILLE 1,  37.110734, -76.517169
2741,WARWICK & OYSTER POINT,  37.107836, -76.514997
2742,OYSTER POINT & WARWICK,  37.104643, -76.510085
2743,NETTLES & OYSTER POINT,  37.105355, -76.507346
2745,NETTLES & WENDWOOD,  37.101402, -76.503073
2746,NETTLES & CLAIBORNE,  37.100167, -76.500805
2747,NETTLES & SANDPEBBLE 1,  37.089637, -76.496069
2750,NETTLES & WARWICK,  37.085703, -76.497692
2751,WARWICK & TURLINGTON,  37.083214, -76.498169
2752,WARWICK & CULPEPPER,  37.080914, -76.497636
2753,VIRGINIA BEACH & MILITARY,  36.855523, -76.206873
2754,WARWICK & WELLESLEY,  37.077351, -76.495466
2756,JEFFERSON & WOODCREEK,  37.171429, -76.546115
2757,WARWICK & GLENDALE,  37.070748, -76.493175
2759,JEFFERSON & MASON,  37.166166, -76.541862
2760,WARWICK & PRINCE DREW,  37.067685, -76.492736
2761,WARWICK & SWEETBRIAR,  37.063683, -76.489911
2762,JEFFERSON & KINGS RIDGE,  37.157482, -76.535039
2763,WARWICK & MATTHEW,  37.055654, -76.481672
2765,WARWICK & COPELAND,  37.051844, -76.478085
2767,WARWICK & LOGAN,  37.046862, -76.473701
2768,WARWICK & NELSON,  37.044566, -76.473707
2770,WARWICK & JAMES RIVER,  37.041497, -76.471508
2771,WARWICK & RIDGEWAY,  37.039646, -76.469092
2772,WARWICK & JAMES RIVER,  37.037664, -76.467498
2774,WARWICK & BRANDON,  37.034811, -76.464287
2776,WARWICK & MAIN,  37.032351, -76.460652
2777,WARWICK & RALEIGH,  37.029744, -76.457959
2780,WARWICK & WOODFIN,  37.026273, -76.455836
2782,WARWICK & SOUTH,  37.022962, -76.453775
2784,WARWICK & HORNET,  37.019385, -76.451573
2785,WARWICK & 72ND,  37.011848, -76.446841
2786,HUNTINGTON & 70TH,  37.009722, -76.446523
2787,HUNTINGTON & 68TH,  37.006715, -76.445713
2789,HUNTINGTON & 64TH,  37.003782, -76.443563
2791,HUNTINGTON & 59TH,  37.000371, -76.442039
2792,HUNTINGTON & 56TH,  36.998035, -76.440722
2794,50TH & HUNTINGTON,  36.994294, -76.439026
2795,WASHINGTON & 49TH,  36.993187, -76.439970
2797,WASHINGTON & 46TH,  36.991276, -76.438790
2799,WASHINGTON & 41ST,  36.988082, -76.436818
2800,JEFFERSON & 20TH,  36.977646, -76.418804
2802,JEFFERSON & 16TH,  36.974683, -76.416995
2804,JEFFERSON & 12TH 1,  36.972486, -76.415641
2806,JEFFERSON & 6TH,  36.969697, -76.413893
2808,6TH & AQUA VISTA,  36.969525, -76.410454
2809,WARWICK & BEECHMONT,  37.137928, -76.546257
2834,SETTLERS LANDING & STEWART,  37.024502, -76.353367
2835,SETTLERS LANDING & BACK RIVER,  37.024657, -76.356909
2836,SETTLERS LANDING & LASALLE,  37.024926, -76.362328
2837,JEFFERSON & MCMORROW,  37.150259, -76.529390
2838,LASALLE & MICHIGAN,  37.029982, -76.362745
2839,COLISEUM & PINE CHAPEL,  37.038483, -76.386315
2840,COLISEUM & CONVENTION,  37.040134, -76.387410
2842,COLISEUM & MARCELLA,  37.048079, -76.390923
2843,JEFFERSON & HANOVER,  37.145402, -76.525496
2844,JEFFERSON & BUCHANAN,  37.142773, -76.523575
2845,COLISEUM & CAREPLEX,  37.055356, -76.392243
2846,HARDY CASH & PEABODY,  37.056269, -76.395673
2847,HARDY CASH & EXECUTIVE,  37.056144, -76.398746
2848,HARDY CASH & HAMPTON CLUB,  37.056374, -76.401603
2852,BUTLER FARM & MAGRUDER,  37.063461, -76.402253
2853,BUTLER FARM & LUCAS 1,  37.062205, -76.408287
2854,BUTLER FARM & LUCAS 2,  37.061737, -76.411324
2855,BUTLER FARM & OLD MALLORY,  37.061539, -76.414099
2856,THOMAS NELSON COMMUNITY COLLEGE,  37.061650, -76.419173
2857,BUTLER FARM & OLD MALLORY,  37.061293, -76.414080
2858,BUTLER FARM & LUCAS 1,  37.061426, -76.411796
2859,BUTLER FARM & AIRBORNE,  37.063466, -76.398393
2860,BUTLER FARM & LUCAS 3,  37.062391, -76.406860
2861,BUTLER FARM & MAGRUDER 1,  37.062858, -76.405231
2862,BUTLER FARM & MAGRUDER 2,  37.063147, -76.401984
2863,BUTLER FARM & WATTS,  37.064010, -76.389945
2864,ARMISTEAD & BUTLER FARM,  37.064175, -76.386021
2865,ARMISTEAD & SACRAMENTO,  37.068284, -76.384699
2866,ARMISTEAD & POTTER,  37.071723, -76.382609
2867,HAMMOND & KING,  37.074195, -76.350352
2868,MAGRUDER & FLOYD THOMPSON,  37.086354, -76.395043
2869,SEMPLE FARMS & COMMANDER SHEPPARD,  37.093368, -76.394025
2870,COMMANDER SHEPPARD & SPINNAKER,  37.092679, -76.390489
2872,ARMISTEAD & SONNY HUTCHINS,  37.087292, -76.383258
2874,ARMISTEAD & NETTLES,  37.070100, -76.384046
2875,ARMISTEAD & SACRAMENTO,  37.068200, -76.385204
2876,ARMISTEAD & BUTLER FARM,  37.065027, -76.386198
2877,BUTLER FARM & WATTS,  37.064168, -76.390057
2878,HARDY CASH & HAMPTON CLUB,  37.055882, -76.401110
2879,HARDY CASH & EXECUTIVE,  37.055987, -76.398286
2880,HARDY CASH & PEABODY,  37.056118, -76.395917
2881,COLISEUM & HARDY CASH,  37.055417, -76.392601
2882,COLISEUM & SIGNATURE,  37.052987, -76.392357
2883,COLISEUM & CONVENTION,  37.040711, -76.388024
2884,COLISEUM & PINE CHAPEL,  37.038790, -76.386762
2885,PINE CHAPEL & COLISEUM,  37.037785, -76.384755
2886,MICHIGAN & LASALLE,  37.030061, -76.363283
2887,SETTLERS LANDING & LASALLE,  37.024626, -76.362722
2888,SETTLERS LANDING & BACK RIVER,  37.024342, -76.356618
2889,SETTLERS LANDING & STEWART,  37.024206, -76.353616
2896,KING & CAVALIER,  37.047962, -76.347648
2897,KING & MACALVA,  37.051081, -76.347328
2898,LITTLE BACK RIVER & RIVERCHASE,  37.054283, -76.345970
2900,LITTLE BACK RIVER & BEVERLY,  37.058760, -76.344537
2901,LITTLE BACK RIVER & ROSEWOOD,  37.060688, -76.343001
2902,LITTLE BACK RIVER & CLEMWOOD,  37.062420, -76.340774
2904,CLEMWOOD & APOLLO,  37.058484, -76.336660
2906,CLEMWOOD & GUILDFORD,  37.055408, -76.332974
2908,FOX HILL & CLEMWOOD,  37.053852, -76.331380
2910,FOX HILL & WILLOW OAKS,  37.056518, -76.327450
2911,FOX HILL & BONAIRE,  37.058153, -76.322253
2912,FOX HILL & WOODLAND,  37.058939, -76.317721
2913,FOX HILL & NICKERSON,  37.056502, -76.311742
2914,FOX HILL & EAGLES,  37.056955, -76.308634
2915,FOX HILL & ROSSER,  37.058559, -76.304495
2916,FOX HILL & OLD BUCKROE,  37.059391, -76.300538
2917,OLD BUCKROE & RANALET,  37.056281, -76.301010
2919,OLD BUCKROE & ANDREWS,  37.051531, -76.300452
2920,ANDREWS & FRANKTOWN,  37.051302, -76.303007
2921,ANDREWS & NEWTON,  37.049475, -76.306091
2922,ANDREWS & NICKERSON,  37.048253, -76.307933
2923,AMHERST & BANCROFT,  37.045534, -76.310466
2926,AMHERST & SKYLAND,  37.042209, -76.306875
2927,SKYLAND & PEMBROKE,  37.040598, -76.308018
2928,PEMBROKE & OLD BUCKROE,  37.040370, -76.304039
2929,PEMBROKE & REYNOLDS,  37.040913, -76.301939
2930,PEMBROKE & ATLANTIC,  37.041767, -76.298301
2931,PEMBROKE & FOURTH,  37.041708, -76.295535
2936,BUCKROE & FIFTH,  37.043839, -76.295486
2938,BUCKROE & RALPH,  37.044993, -76.299151
2939,OLD BUCKROE & WOOD,  37.042836, -76.303117
2940,OLD BUCKROE & RICHARD,  37.041623, -76.303931
2942,SKYLAND & AMHERST,  37.042073, -76.306800
2944,AMHERST & ANDREWS,  37.045696, -76.310485
2945,ANDREWS & NICKERSON,  37.047989, -76.307749
2947,ANDREWS & FRANKTOWN,  37.050974, -76.303220
2948,ANDREWS & OLD BUCKROE,  37.051223, -76.300472
2949,OLD BUCKROE & RANALET,  37.056055, -76.300825
2950,OLD BUCKROE & SALT PONDS,  37.058893, -76.300294
2951,FOX HILL & SAINT ASHLEY,  37.059060, -76.302719
2952,FOX HILL & BAXTER,  37.057735, -76.306819
2953,FOX HILL & NICKERSON,  37.056647, -76.311389
2954,FOX HILL & WOODLAND,  37.058950, -76.317428
2955,FOX HILL & BONAIRE,  37.058247, -76.322531
2957,FOX HILL & DUNHAM MASSIE,  37.056485, -76.328121
2959,FOX HILL & SYMS,  37.054668, -76.330642
2961,CLEMWOOD & GUILDFORD,  37.055427, -76.332613
2962,CLEMWOOD & APOLLO,  37.058416, -76.336193
2964,LITTLE BACK RIVER & GLENWOOD,  37.060240, -76.343807
2966,LITTLE BACK RIVER & LEXINGTON,  37.056950, -76.345364
2967,LITTLE BACK RIVER & WALNUT,  37.055694, -76.345650
2968,BALLENTINE & LAKEBRIDGE,  36.848251, -76.250327
2969,KING & ROLAND,  37.048176, -76.347768
2970,KING & THORNROSE,  37.045465, -76.348119
2971,SKYLAND & PEMBROKE,  37.040649, -76.307812
2973,PEMBROKE & WOODLAND 1,  37.033611, -76.321303
2975,PEMBROKE & OAKCREST,  37.036212, -76.317041
2976,GRIMES & PEMBROKE,  37.038255, -76.314269
2977,GRIMES & KENSINGTON,  37.040634, -76.314257
2980,ANDREWS & REDFORD,  37.044833, -76.312373
2981,OLD BUCKROE & RICHARD,  37.041364, -76.303822
2983,OLD BUCKROE & WOOD,  37.044197, -76.301919
2984,BUCKROE & SEABOARD,  37.045091, -76.300279
2985,BUCKROE & FOURTH,  37.043431, -76.294659
2987,MALLORY & SEABOARD,  37.039686, -76.295394
2989,BALLENTINE & DANA,  36.864095, -76.250620
2990,MALLORY & WHITAKER,  37.036098, -76.300848
2991,MALLORY & DARBY,  37.034562, -76.303152
2993,MALLORY & SARGEANT,  37.032710, -76.305979
2995,MALLORY & BERKLEY,  37.030528, -76.309278
2997,MALLORY & WILSON,  37.027451, -76.312819
2998,BALLENTINE & MCLEMORE,  36.865058, -76.251028
2999,MALLORY & SHERWOOD,  37.025611, -76.313975
3001,MALLORY & TAYLOR,  37.022168, -76.317162
3002,SETTLERS LANDING & HAMPTON HARBOR,  37.025564, -76.333086
3004,LINCOLN & FRANKLIN,  37.027518, -76.347302
3006,OYSTER POINT & OPERATIONS,  37.105753, -76.501116
3007,AMHERST & KENSINGTON,  37.043736, -76.308345
3009,LITTLE BACK RIVER & RIVERCHASE,  37.054322, -76.346104
3010,KING & GILBERT,  37.050169, -76.347590
3011,LINCOLN & FRANKLIN,  37.027780, -76.347639
3012,LASALLE & PEMBROKE,  37.027199, -76.362970
3017,BATTLEFIELD & COASTAL,  36.766202, -76.252010
3018,PICKETTS LINE & WARWICK,  37.175927, -76.572432
3019,PICKETTS LINE & ENTERPRISE,  37.174369, -76.580131
3020,ENTERPRISE & SAUDER,  37.176368, -76.578089
3021,ENTERPRISE & WARWICK,  37.178468, -76.575615
3022,CORPREW & MERRIMAC,  36.850562, -76.252939
3023,CORPREW & NORCHESTER,  36.850502, -76.255252
3024,TIDEWATER & MAY,  36.847952, -76.277059
3025,KIMBALL & WILEY,  36.842622, -76.246218
3026,KIMBALL & COURT 1,  36.841634, -76.250567
3027,KIMBALL & COURT 2,  36.841921, -76.249901
3028,KIMBALL & COURT 3,  36.843213, -76.249360
3029,KIMBALL & COURT 1,  36.841778, -76.250374
3030,KIMBALL & WILEY 1,  36.842685, -76.246055
3031,MILITARY & SHELL,  36.773470, -76.308155
3032,MILITARY & SHELL,  36.773222, -76.307934
3033,BRIARFIELD & WARD,  37.024740, -76.390728
3035,BRIARFIELD & GARRETT,  37.022392, -76.393548
3036,BRIARFIELD & PICKETT,  37.021317, -76.394873
3037,BRIARFIELD & PARKINSON,  37.018872, -76.401688
3038,BIG BETHEL & BRIARFIELD,  37.018034, -76.413104
3039,BIG BETHEL & JOYNES,  37.021364, -76.414922
3040,LASSITER & JUANITA,  37.022787, -76.417720
3041,ORCUTT & 81ST,  37.022857, -76.434654
3042,ORCUTT & ANDOVER,  37.030290, -76.438662
3043,ORCUTT & GOLDSBORO,  37.032665, -76.439845
3044,ORCUTT & FRIENDLY,  37.034891, -76.440633
3045,ORCUTT & SHARPLEY,  37.037856, -76.440748
3046,ORCUTT & BARRINGTON,  37.040752, -76.440960
3047,ORCUTT & TODDS,  37.042704, -76.441292
3048,TODDS & WELLINGTON,  37.042936, -76.438971
3050,TODDS & WARNER,  37.042980, -76.435750
3051,TODDS & WHEALTON,  37.042759, -76.433130
3052,TODDS & OLD BIG BETHEL,  37.042555, -76.430020
3053,BIG BETHEL & TODDS,  37.042575, -76.427841
3054,BIG BETHEL & OLD BIG BETHEL,  37.046267, -76.429827
3056,BIG BETHEL & BURTON,  37.052328, -76.428643
3057,BIG BETHEL & VILLAGE,  37.058331, -76.427365
3058,BIG BETHEL & TOWN CENTER,  37.063406, -76.427093
3059,THOMAS NELSON & BIG BETHEL,  37.069192, -76.427310
3060,GOFF & OKEEFE,  36.859440, -76.275816
3063,Thomas Nelson / Battle,  37.067597, -76.425360
3064,THOMAS NELSON & BIG BETHEL,  37.068949, -76.426202
3065,BIG BETHEL & TOWN CENTER,  37.063252, -76.427362
3066,BIG BETHEL & MICHAELS WOODS,  37.057658, -76.427846
3068,BIG BETHEL & BURTON (BHS),  37.053368, -76.428681
3069,BIG BETHEL & RADFORD 2,  37.049379, -76.429320
3070,BIG BETHEL & OLD BIG BETHEL,  37.045114, -76.428834
3071,BIG BETHEL & TODDS,  37.042737, -76.428048
3072,TODDS & OLD BIG BETHEL,  37.042730, -76.430054
3073,TODDS & TOPPING,  37.043022, -76.434505
3075,TODDS & RIDGECREST,  37.043104, -76.439201
3076,ORCUTT & TODDS,  37.041250, -76.441327
3077,ORCUTT & FRIENDLY,  37.035044, -76.440987
3078,ORCUTT & GOLDSBORO,  37.033093, -76.440365
3079,ORCUTT & ANDOVER,  37.030903, -76.439319
3082,INDIAN RIVER & ELKIN,  36.830780, -76.263366
3083,JEFFERSON & 79TH,  37.016909, -76.443224
3085,LASSITER & JUANITA,  37.022579, -76.417948
3087,BIG BETHEL & JOYNES,  37.020906, -76.414947
3088,BIG BETHEL & BRIARFIELD,  37.017580, -76.413051
3089,INDIAN RIVER & ELKIN,  36.830715, -76.263469
3090,BRIARFIELD & NORTHWOOD,  37.019338, -76.398275
3091,BRIARFIELD & ROBERT E LEE,  37.020795, -76.395226
3092,BRIARFIELD & GARRETT,  37.022471, -76.393235
3094,BRIARFIELD & WARD,  37.024837, -76.390187
3095,JEFFERSON & MIDDLE GROUND,  37.088143, -76.483431
3096,CANON & COMPASS WAY,  37.103736, -76.480932
3097,COMMUTER & INDEPENDENCE,  36.820745, -76.125672
3098,HOLLAND & SHIPPS CORNER,  36.792196, -76.080878
3099,HOLLAND & LYNNHAVEN,  36.800090, -76.085751
3101,TIDEWATER & STANLEY,  36.913027, -76.255158
3103,OMNI & ROCK LANDING,  37.088768, -76.464333
3106,BLAND & JEFFERSON,  37.128386, -76.510282
3108,HOLLAND & LORD BYRON,  36.818249, -76.118150
3109,AFTON & PROSPECT,  36.801645, -76.317645
3110,AVONDALE & GLENWOOD,  36.792546, -76.348717
3111,ROOSEVELT & WELK,  36.792867, -76.357220
3112,HORNE & STAUFFER,  36.797137, -76.367895
3113,HORNE & STAUFFER,  36.797030, -76.367611
3114,AVONDALE & RIDDICK,  36.791778, -76.352792
3115,AVONDALE & RIDDICK,  36.791847, -76.352290
3116,AVONDALE & GLENWOOD,  36.792430, -76.348792
3117,VICTORY & BEECHDALE,  36.795848, -76.339501
3118,DARREN & GREENWOOD,  36.799424, -76.370157
3119,GREENWOOD & LANGLEY,  36.799706, -76.362112
3120,GREENWOOD & VIKING,  36.799677, -76.361009
3121,GREENWOOD & STRATFORD,  36.799907, -76.356295
3122,GREENWOOD & VIKING,  36.799936, -76.361513
3123,GREENWOOD & CLAY,  36.800046, -76.364661
3124,TURNPIKE & WILSON 2,  36.826410, -76.336932
3125,TURNPIKE & RODMAN,  36.820713, -76.346085
3126,GEORGE WASHINGTON & GILMERTON,  36.781803, -76.335348
3127,VICTORY & KENT,  36.796038, -76.341184
3128,NORTH CENTER & KEMPSVILLE,  36.848135, -76.186697
3129,NORTH CENTER & CENTER,  36.847092, -76.185957
3132,BIG BETHEL & TUPELO,  37.079300, -76.425354
3133,SAUNDERS & BIG BETHEL,  37.087812, -76.425689
3134,SAUNDERS & QUARTER PATH,  37.088467, -76.431461
3135,SAUNDERS & BETZ,  37.089897, -76.435227
3136,SAUNDERS & KINGWOOD,  37.091218, -76.439765
3137,DAPHIA & SAUNDERS 1,  37.093320, -76.445701
3138,DAPHIA & SAUNDERS 2,  37.092203, -76.445651
3140,SAINT EGNATIOS & RAVOLIS,  37.091143, -76.447713
3142,SAINT EGNATIOS & ROUVALIS 2,  37.089481, -76.447096
3143,DAPHIA & SAINT EGNATIOS,  37.092239, -76.447395
3145,DAPHIA & SAUNDERS,  37.094241, -76.447657
3146,SAUNDERS & HARPERSVILLE,  37.095206, -76.449626
3147,HARPERSVILLE & BAYBERRY,  37.097134, -76.453978
3148,HARPERSVILLE & J CLYDE MORRIS,  37.098109, -76.457696
3149,J CLYDE MORRIS & HARPERSVILLE,  37.097153, -76.459200
3150,J CLYDE MORRIS & TRAVERSE,  37.094804, -76.459223
3152,DILIGENCE & ROCK LANDING,  37.084323, -76.463312
3154,THIMBLE SHOALS & GREAT OAK,  37.080838, -76.465605
3156,J CLYDE MORRIS & THIMBLE SHOALS,  37.077844, -76.465331
3157,J CLYDE MORRIS & FORREST,  37.076209, -76.469414
3158,J CLYDE MORRIS & WOODS (NP),  37.075527, -76.471153
3159,J CLYDE MORRIS & RUGBY,  37.073305, -76.476596
3160,J CLYDE MORRIS & KINGSTOWNE,  37.072452, -76.477901
3161,JEFFERSON & FORREST,  37.076004, -76.475906
3162,JEFFERSON & PAVILION,  37.078790, -76.477603
3164,JEFFERSON & THIMBLE SHOALS,  37.083101, -76.480290
3166,JEFFERSON & SAINT THOMAS,  37.091329, -76.485386
3167,JEFFERSON & ONNES,  37.094057, -76.487087
3168,JEFFERSON & BELL KING,  37.097348, -76.489081
3169,JEFFERSON & HOGAN,  37.100400, -76.490926
3170,JEFFERSON & OYSTER POINT 1,  37.103536, -76.492871
3171,JEFFERSON & HABERSHAM,  37.123718, -76.508154
3172,NEWPORT NEWS & WMSBG  AIRPORT,  37.130144, -76.503613
3173,MCMANUS & CHEROKEE,  37.134849, -76.506932
3174,MCMANUS & TURNBERRY,  37.138305, -76.509592
3176,MCMANUS & SAINT CLARE,  37.142427, -76.512854
3177,JEFFERSON & DENBIGH,  37.136353, -76.518550
3178,JEFFERSON & HABERSHAM,  37.124137, -76.508934
3179,JEFFERSON & OYSTER POINT,  37.103898, -76.493539
3180,JEFFERSON & HOGAN,  37.100485, -76.491389
3181,JEFFERSON & BELL KING,  37.097717, -76.489700
3182,JEFFERSON & MULLER,  37.093588, -76.487139
3184,MIDDLE GROUND & JEFFERSON,  37.088247, -76.483278
3185,BART & FREDERICK,  36.830622, -76.341193
3186,ROSEMONT & HARBINGER 2,  36.793189, -76.099550
3187,WARWICK & MINTON,  37.073154, -76.493750
3188,JEFFERSON & KINGSWAY,  37.082074, -76.480075
3189,JEFFERSON & PILOT HOUSE,  37.080454, -76.479029
3190,PRINCESS ANNE & CONCERT,  36.779488, -76.097022
3192,J CLYDE MORRIS & IMPALA,  37.074491, -76.472804
3193,J CLYDE MORRIS & FORREST,  37.075832, -76.469458
3194,J CLYDE MORRIS & SHADWELL,  37.077112, -76.466276
3196,THIMBLE SHOALS & GREAT OAK,  37.080769, -76.465293
3199,DILIGENCE & ROCK LANDING,  37.084234, -76.463273
3200,J CLYDE MORRIS & TRAVERSE,  37.094617, -76.458881
3201,J CLYDE MORRIS & HARPERSVILLE,  37.096938, -76.458813
3203,HARPERSVILLE & BAYBERRY,  37.096864, -76.453572
3204,HARPERSVILLE & SAUNDERS,  37.095315, -76.450551
3206,DAPHIA & SAUNDERS 2,  37.093066, -76.447697
3208,DAPHIA & SAINT EGNATIOS,  37.091717, -76.445887
3210,DAPHIA & SAUNDERS 2,  37.093131, -76.445458
3211,SAUNDERS & KINGWOOD,  37.090592, -76.438528
3212,SAUNDERS & SANLUN LAKES,  37.089619, -76.434994
3213,SAUNDERS & EDGEMONT,  37.088233, -76.431081
3214,SAUNDERS & BIG BETHEL,  37.087691, -76.424632
3215,BIG BETHEL & TUPELO,  37.078816, -76.425753
3217,BIG BETHEL & BATTLE (mdblk),  37.070992, -76.427132
3218,NET CENTER,  37.026305, -76.438086
3219,NORTH CENTER & CENTER,  36.847352, -76.185840
3220,JEFFERSON & 36TH,  36.988468, -76.425325
3221,PRINCESS ANNE & CONCERT 2,  36.778814, -76.096466
3225,JEFFERSON & 49TH,  36.996779, -76.430369
3226,JEFFERSON & PENINSULA,  37.000045, -76.432427
3228,JEFFERSON & TEMPLE,  37.003807, -76.434737
3229,JEFFERSON & BOONE,  37.006950, -76.436687
3231,JEFFERSON & ADENA,  37.010874, -76.439094
3234,JEFFERSON & 79TH,  37.016895, -76.442835
3235,JEFFERSON & MORRIS,  37.022228, -76.446115
3237,JEFFERSON & WILCOX,  37.025756, -76.448337
3240,JEFFERSON & NORTH,  37.028482, -76.449985
3242,JEFFERSON & WARWICKSHIRE,  37.034766, -76.453848
3243,HIGH & WILLETT,  36.836816, -76.349446
3244,JEFFERSON & VILLAGE,  37.038013, -76.455871
3246,JEFFERSON & FRANCISCO,  37.041049, -76.457770
3247,JEFFERSON & MCLAWHORNE,  37.044160, -76.459347
3248,JEFFERSON & HEMLOCK,  37.047091, -76.459715
3250,JEFFERSON & LYLISTON,  37.050065, -76.460213
3252,JEFFERSON & GAMBOL,  37.053159, -76.461762
3253,JEFFERSON & DRESDEN,  37.056731, -76.464031
3255,JEFFERSON & NEWPORT,  37.061699, -76.467078
3257,JEFFERSON & WINSTON,  37.066530, -76.470054
3258,JEFFERSON & GROOME,  37.069473, -76.471857
3259,JEFFERSON & ROBINSON,  37.071594, -76.473151
3260,CANON & BLUECRAB,  37.091063, -76.472432
3262,MIDDLE GROUND & TUG BOAT,  37.091455, -76.476719
3263,NORTH GATE GRUMMAN (Shipyard & Huntington),  36.999632, -76.441850
3264,UNIVERSITY & SHOE (CNU),  37.061565, -76.492012
3265,THIMBLE SHOALS & DILIGENCE,  37.083128, -76.467112
3266,JEFFERSON & ROBINSON,  37.071095, -76.473175
3267,KECOUGHTAN & APPLE,  36.995737, -76.391916
3268,JEFFERSON & GROOME,  37.069536, -76.472293
3269,JEFFERSON & HUBER,  37.067367, -76.470974
3270,JEFFERSON & LANGLEY,  37.064052, -76.468922
3271,JEFFERSON & NEWPORT,  37.061432, -76.467320
3272,JEFFERSON & HARPERSVILLE,  37.058421, -76.465436
3274,JEFFERSON & DRESDEN,  37.054610, -76.463136
3276,JEFFERSON & GREENWOOD,  37.051098, -76.460952
3279,JEFFERSON & HEMLOCK,  37.047317, -76.460142
3280,JEFFERSON & MCLAWHORNE,  37.044422, -76.459722
3281,JEFFERSON & FRANCISCO,  37.040647, -76.457949
3282,JEFFERSON & MAIN,  37.036408, -76.455329
3284,JEFFERSON & BELLWOOD,  37.033008, -76.453228
3285,JEFFERSON & RANDOLPH,  37.030269, -76.451541
3286,JEFFERSON & RANDOLPH,  37.031173, -76.451656
3287,JEFFERSON & CENTER,  37.027922, -76.450044
3288,JEFFERSON & WILCOX,  37.025803, -76.448748
3290,JEFFERSON & MORRIS,  37.022633, -76.446789
3291,JEFFERSON & ODUM,  37.015011, -76.442046
3292,JEFFERSON & PATS,  37.012386, -76.440453
3293,JEFFERSON & 72ND,  37.011542, -76.439978
3294,JEFFERSON & HILTON,  37.008911, -76.438270
3295,JEFFERSON & BRIARFIELD,  37.005837, -76.436342
3296,JEFFERSON & 58TH,  37.002702, -76.434420
3297,JEFFERSON & ELLEN,  37.001689, -76.433785
3298,JEFFERSON & PENINSULA,  37.000152, -76.432853
3299,JEFFERSON & 49TH,  36.996820, -76.430776
3302,JEFFERSON & 44TH,  36.993623, -76.428809
3304,JEFFERSON & 41ST,  36.991726, -76.427627
3305,JEFFERSON & DENBIGH,  37.139262, -76.520845
3306,CORPORATE & MILITARY,  36.836932, -76.211838
3307,CORPORATE & ORION,  36.839686, -76.213570
3310,MAYON & WINGFIELD,  36.819516, -76.251355
3311,BETHEL & CAYCE,  36.818421, -76.256853
3312,BETHEL & DRAYTON,  36.818329, -76.256788
3313,SHELTER & BETHEL,  36.812529, -76.255404
3314,BORDER & WINDY,  36.815902, -76.250381
3315,BORDER & WINDY,  36.816018, -76.251253
3317,HABERSHAM & WALMART,  37.120306, -76.508148
3318,CHATHAM & HABERSHAM,  37.123463, -76.512765
3319,JEFFERSON & WELLNESS,  37.136731, -76.518407
3320,JEFFERSON & DENBIGH,  37.139780, -76.520779
3321,JEFFERSON & BUCHANAN,  37.144007, -76.524176
3322,JEFFERSON & RICHNECK,  37.150018, -76.529006
3323,JEFFERSON & MEADOW CREEK,  37.153208, -76.531490
3324,JEFFERSON & GREEN GROVE,  37.156543, -76.534027
3326,JEFFERSON & SHIELDS,  37.166317, -76.541638
3327,JEFFERSON & WOODCREEK,  37.171434, -76.545773
3328,WARWICK & DOZIER,  37.175676, -76.569517
3329,WARWICK & ENTERPRISE,  37.180909, -76.569947
3330,ELMHURST & WARWICK,  37.192466, -76.575179
3331,LYNNHAVEN & VIKING,  36.828474, -76.067164
3333,INDIAN RIVER & CENTERVILLE,  36.803522, -76.187651
3334,WARWICK & HILLTOP,  37.185260, -76.571964
3335,WARWICK & RIPLEY,  37.190648, -76.571696
3336,LITTLE CREEK & MERRITT,  36.914969, -76.245928
3337,PEMBROKE & MERCURY,  37.033277, -76.325234
3338,CUNNINGHAM & HARTFORD,  37.046586, -76.394372
3339,BLAND & CAMPBELL,  37.121931, -76.523373
3340,CHATHAM & BOYKIN,  37.124830, -76.514016
3341,CHATHAM & HABERSHAM,  37.123170, -76.509688
3342,GEORGE WASHINGTON & BAINBRIDGE,  36.804372, -76.321533
3343,ARMISTEAD & QUEEN,  37.025785, -76.349858
3344,BAINBRIDGE & HOLLY,  36.810540, -76.277647
3346,NORTH CENTER & KEMPSVILLE,  36.848303, -76.186539
3347,PRINCESS ANNE & LYNNHAVEN,  36.793238, -76.118802
3348,HIGH & DUKE,  36.844403, -76.366585
3349,PORTSMOUTH & STAUNTON,  36.818000, -76.320715
3351,VIRGINIA BEACH & LYNNHAVEN,  36.844166, -76.073218
3352,NEWTOWN & ELAM,  36.851539, -76.178725
3354,VIRGINIA BEACH & LINCOLN,  36.856605, -76.280043
3355,LYNHAVEN & AMBERLEY FOREST,  36.795837, -76.115515
3356,CANON & ACHIEVEMENT,  37.098831, -76.475985
3357,CUNNINGHAM & EXECUTIVE,  37.045801, -76.395713
3358,THIMBLE SHOALS & MOBJACK,  37.084766, -76.472574
3360,FISHING POINT & MIDDLE GROUND,  37.087855, -76.480528
3361,ROCK LANDING & OMNI,  37.089988, -76.464761
3363,ROCK LANDING & BLUE CRAB,  37.094312, -76.467007
3364,MIDDLE GROUND & CANON,  37.093849, -76.471217
3365,HIGH & WILLETT,  36.837386, -76.350368
3367,CANON & ACHIEVEMENT,  37.099151, -76.475976
3368,HUNTINGTON PARK PNR,  37.016688, -76.453429
3370,SMITHS NECK & CARROLLTON,  36.951849, -76.532177
3371,SMITHFIELD PARK N RIDE,  36.977046, -76.641491
3374,OCONNOR & H,  36.954435, -76.265355
3376,TOWWAY & 4 TH,  36.945825, -76.295631
3379,WARWICK & CURTIS,  37.185974, -76.571714
3380,WARWICK & RIPLEY,  37.190433, -76.571525
3381,WARWICK & ENTERPRISE,  37.181031, -76.570168
3382,WARWICK & DOZIER,  37.175753, -76.569824
3383,HIGH & CONSTITUTION,  36.834694, -76.325676
3384,HIGH & PRIMROSE,  36.835121, -76.312133
3385,HIGH & CONSTITUTION,  36.834805, -76.325454
3388,ROCK LANDING & MIDDLE GROUND,  37.094464, -76.467219
3390,ROCK LANDING & OMNI,  37.088997, -76.464436
3391,OMNI & ROCK LANDING,  37.088754, -76.464917
3392,CANON & TOWN CENTER,  37.088182, -76.470423
3393,CANON & BLUECRAB,  37.090900, -76.472165
3394,MIDDLE GROUND & TUGBOAT,  37.091710, -76.476563
3396,TIDEWATER & SAINT JULIAN,  36.861258, -76.271571
3397,CHATHAM & BOYKIN,  37.125267, -76.514179
3401,MIDDLE GROUND & CANON,  37.093687, -76.471366
3405,LITTLE CREEK & MAJOR,  36.916079, -76.298713
3406,BALLENTINE & MAPLETON,  36.854305, -76.248435
3407,BALLENTINE & WOODLAND,  36.853780, -76.248389
3773,KEMPSVILLE & CENTER 1,  36.848006, -76.191215
3774,GATE 4 NAVAL STATION,  36.945540, -76.274079
3775,KEMPSVILLE & CENTER 2,  36.846601, -76.190901
3776,HOLLAND & WARWICK,  36.797969, -76.084527
3777,VIRGINIA BEACH & BIRDNECK,  36.841634, -75.996323
3778,GEORGE WASHINGTON & WOODLAND,  36.783101, -76.334331
3779,VICTORY & GREENWOOD,  36.800067, -76.351809
3780,GEORGE WASHINGTON & WOODLAND,  36.782944, -76.334676
3781,GEORGE WASHINGTON & GILMERTON,  36.781355, -76.335865
3783,PRINCESS ANNE & INDEPENDENCE,  36.789609, -76.112705
3784,38TH & HAMPTON,  36.879709, -76.302505
3785,HAMPTON & 49TH,  36.888835, -76.302770
3788,VIRGINIA BEACH & WEST,  36.842425, -76.017386
3790,VIRGINIA BEACH & FIRST COLONIAL,  36.842717, -76.022620
3792,TOWNE POINT & PEPPERWOOD,  36.873079, -76.402090
3793,HIGH & VIRGINIA,  36.834704, -76.330023
3794,HIGH & CUTHERELL,  36.834650, -76.332363
3797,PRINCESS ANNE & CROSSROAD,  36.758949, -76.022074
3798,PRINCESS ANNE & NIMMO,  36.755741, -76.060292
3799,PRINCESS ANNE & JAMES MADISON,  36.754663, -76.058797
3801,FIRST VIEW & D VIEW,  36.953222, -76.256576
3802,FIRST VIEW & CHERRY,  36.950714, -76.259074
3803,FIRST VIEW & MAPLE,  36.949301, -76.261050
3804,26TH & WAVERLY,  36.872166, -76.274820
3806,HIGH & HARBOR,  36.834638, -76.328299
3808,JEFFERSON & 41ST,  36.991905, -76.427385
3809,JEFFERSON & 74TH,  37.013231, -76.440600
3810,HIGH & POTAMAC,  36.834358, -76.340694
3811,COUNTY & BOOKER,  37.019636, -76.321788
3812,PEMBROKE & WASHINGTON,  37.030809, -76.342949
3813,PEMBROKE & THEODORE,  37.033099, -76.326433
3814,MALLORY & HERBERT,  37.039161, -76.295767
3815,COUNTY & FRISSELL,  37.022170, -76.325546
3817,BRIARFIELD & NORTHWOOD,  37.019739, -76.397237
3818,BRIARFIELD & PARKINSON,  37.018946, -76.402182
3819,GENERAL BOOTH & GUNN HALL,  36.777824, -76.003516
3820,CEDAR & LAS GAVIOTAS,  36.719583, -76.287506
3821,CEDAR & CEDAR COMMONS,  36.714812, -76.281568
3822,CEDAR & PINES OF WARRICK,  36.709914, -76.264827
3823,CEDAR & BARTELL,  36.713745, -76.253194
3825,CAMPOSTELLA & HUNTERDALE,  36.805482, -76.255801
3826,PARKSIDE & CAMPOSTELLA,  36.812339, -76.256428
3831,INDIAN RIVER & FORD,  36.830521, -76.254004
3832,BRAMBLETON & CHAPEL,  36.851867, -76.278040
3833,TIDEWATER & BAGNALL,  36.853568, -76.275031
3836,CAMPOSTELLA & ELKIN,  36.833107, -76.262243
3838,MELON & VINE,  36.825708, -76.264283
3839,BERKLEY & CRYSTAL,  36.824918, -76.266651
3842,BATTLEFIELD & BYRON,  36.761646, -76.250841
3844,BATTLEFIELD & CEDAR,  36.716442, -76.239184
3845,CEDAR & MILL LANDING,  36.709987, -76.266158
3846,CEDAR & ROUNTREE,  36.716749, -76.283640
3847,KIMBALL & COURT 2,  36.841888, -76.251921
3848,TIDEWATER & GILPIN,  36.944357, -76.257975
3849,TIDEWATER & EASY,  36.910029, -76.255969
3850,OCEAN VIEW & LECLAIRE,  36.967249, -76.286147
3851,OCEAN VIEW & 5TH VIEW,  36.961061, -76.263304
3852,TIDEWATER & LORENGO,  36.943941, -76.258028
3853,TIDEWATER & LEICESTER,  36.942078, -76.256431
3854,INDIAN RIVER & LEVEL GREEN,  36.810593, -76.202215
3855,INDIAN RIVER & REON,  36.809545, -76.200174
3856,PRINCESS ANNE & LYNNHAVEN,  36.793230, -76.119366
3857,CEDAR & COUNTRY CLUB,  36.711730, -76.276766
3866,MAIN & COMMERCIAL,  36.845850, -76.289130
3868,GRANBY & CHARLOTTE,  36.852422, -76.289163
3869,GRANBY & OLNEY,  36.855880, -76.288368
3874,LITTLE CREEK & HAMPTON,  36.916025, -76.306961
3879,AZALEA GARDEN & FARIS,  36.888309, -76.220877
3880,CHESAPEAKE & JOHNSTONS,  36.908085, -76.240252
3881,LITTLE CREEK & ARMFIELD,  36.916237, -76.291325
3882,WESTMINSTER & BALLENTINE,  36.844790, -76.251904
3883,CEDAR & COUNTRY CLUB,  36.711672, -76.275310
3884,WESTMINSTER & CHICK,  36.844396, -76.248186
3885,KIMBALL & WILEY 2,  36.843360, -76.249194
3887,GILBERT & BAINBRIDGE,  36.948068, -76.305828
3888,GILBERT & FARRAGUT 2,  36.947675, -76.312740
3889,DECATUR & HUGHES,  36.958483, -76.326402
3890,DECATUR & DILLINGHAM,  36.951402, -76.327954
3891,VIRGINIA & GILBERT,  36.947167, -76.322862
3892,GILBERT & FARRAGUT 1,  36.947523, -76.313754
3893,GILBERT & BAINBRIDGE,  36.947848, -76.307566
3894,FIRST VIEW & BURGOYNE,  36.946358, -76.267520
3900,DECATUR & HULL,  36.953205, -76.327536
3901,GENERAL BOOTH & REDMILL,  36.771397, -76.011098
3902,GENERAL BOOTH & LONDON BRIDGE,  36.768123, -76.013377
3903,GENERAL BOOTH & PROSPERITY,  36.797291, -75.994033
3905,GENERAL BOOTH & OCEAN BREEZE,  36.813504, -75.988588
3906,GENERAL BOOTH & MCCOMAS,  36.765053, -76.015014
3907,CAMPOSTELLA & GIDEON,  36.809882, -76.256306
3908,CAMPOSTELLA & SUNRISE,  36.809852, -76.256184
3909,LIBERTYVILLE & WINDWARD,  36.757328, -76.284456
3910,CAMPOSTELLA & EVA,  36.766704, -76.274045
3911,CAMPOSTELLA & KEATS,  36.765565, -76.274201
3912,MAINS CREEK & GREAT BRIDGE,  36.755240, -76.272496
3913,BAINBRIDGE & YACHT,  36.763591, -76.288850
4000,CANON & TOWN CENTER,  37.088257, -76.470723
4003,HIGH & CLOVER HILL,  36.855509, -76.384087
4004,HIGH & FERGUSON,  36.854610, -76.383015
5003,HOLLAND & STONESHORE,  36.805985, -76.090228
5006,CONSTITUTION & COLUMBUS,  36.841668, -76.131043
5010,PRINCESS ANNE & SEABOARD,  36.754056, -76.033686
5011,PRINCESS ANNE & SEABOARD,  36.753987, -76.033927
5014,COLUMBUS & INDEPENDENCE,  36.840834, -76.135006
5016,LYNNHAVEN & SABRE,  36.821637, -76.067137
5019,LYNNHAVEN & INTERNATIONAL,  36.817183, -76.066723
5020,LYNNHAVEN & AVENGER,  36.820310, -76.066862
5029,GREAT NECK & ADAM KEELING,  36.899838, -76.065825
5030,GREAT NECK & ADAM KEELING,  36.900148, -76.065699
5038,FIRST COLONIAL & WOLFSNARE,  36.855679, -76.025055
5042,LYNNHAVEN & INTERNATIONAL,  36.817157, -76.066961
5058,VIRGINIA BEACH & FIRST COLONIAL,  36.842512, -76.020216
5079,HAMPTON & TAUSSIG,  36.942896, -76.318820
5082,B & VIRGINIA,  36.937270, -76.321744
5083,VIRGINIA & TAUSSIG,  36.944627, -76.322480
5085,DECATUR & GILBERT,  36.946644, -76.328604
5086,DECATUR & GILBERT,  36.946823, -76.328729
5088,HUGHES & DECATUR,  36.959291, -76.325811
5090,BUNKER HILL & MARYLAND,  36.953644, -76.320972
5093,GILBERT & FARRAGUT 1,  36.947788, -76.310580
5094,2ND & BELLINGER,  36.944465, -76.300890
5126,EDEN & GREENBRIER,  36.775501, -76.228135
5127,EDEN & GREENBRIER,  36.775226, -76.228255
5129,GREENBRIER MALL,  36.779724, -76.224770
5130,GREENBRIER MALL,  36.779701, -76.224635
5131,FRANKLIN & SECOND,  36.947208, -76.301129
5132,FRANKLIN & 2ND,  36.947112, -76.301146
5142,MARYLAND & HUGHES,  36.954652, -76.319813
5143,B & VIRGINIA,  36.937199, -76.321198
5149,NIMMO & GENERAL BOOTH,  36.763680, -76.014821
5150,GENERAL BOOTH & LONDON BRIDGE,  36.768260, -76.012913
5152,FIRST COLONIAL & WOLFSNARE (FAR SIDE),  36.854853, -76.024576
5156,CHURCHLAND & POPLAR HILL,  36.865234, -76.399083
5161,COLLEGE & LAKE VIEW,  36.882205, -76.425806
5162,COLLEGE & LAKE VIEW,  36.881074, -76.425449
5167,VILLAGE & CHURCHLAND,  36.863781, -76.396644
5173,GATEWAY & SUGAR CREEK,  36.874967, -76.400444
5174,GATEWAY & SUGAR CREEK,  36.874871, -76.400433
5175,PEACHTREE & FRUITWOOD,  36.874919, -76.404029
5177,PEACHTREE & GREENLEAF,  36.877629, -76.404734
5180,HOFFLERS CREEK & PEACHTREE,  36.878405, -76.400941
5181,PEACHTREE & AUGUSTINE,  36.875759, -76.401590
5185,GILBERT & BACON,  36.947282, -76.318204
5186,VIRGINIA & COLD STORAGE,  36.942623, -76.322261
5198,POPLAR HALL & FRIZZELL,  36.849202, -76.203802
5202,EFFINGHAM & QUEEN,  36.835932, -76.306839
5217,PORTSMOUTH & IVEY,  36.815484, -76.342929
5271,JEFFERSON & HQ,  37.107636, -76.495526
5509,BERKLEY & VERNON,  36.823251, -76.262732
5510,BETHEL & HARLING,  36.821006, -76.253688
5511,BETHEL & BERKLEY,  36.819599, -76.255568
5512,CAMPOSTELLA & DIAMOND HILL,  36.789169, -76.263176
5513,INTERNATIONAL & VOYAGER,  36.814240, -76.057555
5514,CAMPOSTELLA & DEXTER,  36.796918, -76.258343
5515,LYNNHAVEN & SABRE,  36.825139, -76.067046
5516,LYNNHAVEN & GUARDIAN,  36.825237, -76.067268
5517,NEWPORT NEWS & KECOUGHTAN,  37.021687, -76.352856
5518,PEMBROKE & PARKDALE,  37.027600, -76.362249
5520,QUEEN & ALLISON SUTTON,  37.024645, -76.378235
5527,MARCELLA & WILLIAMSBURG,  37.050704, -76.389919
5528,MEDICAL & MARCELLA,  37.055054, -76.387373
5529,MEDICAL & VERNON STUART,  37.058257, -76.388736
5530,MEDICAL & COLISEUM,  37.056771, -76.391340
5532,LIBERTY & CULPEPPER,  36.828256, -76.279782
5534,GENERAL BOOTH & LONDON BRIDGE,  36.766667, -76.013588
5535,PACIFIC & 30TH,  36.858487, -75.978956
5536,PACIFIC & 11TH,  36.839405, -75.974061
5542,EFFINGHAM & FIREHOUSE,  36.837782, -76.306929
5544,CRAWFORD & EFFINGHAM,  36.841230, -76.306351
5545,CRAWFORD & HATTON,  36.841379, -76.309898
5546,CRAWFORD & EFFINGHAM,  36.841239, -76.306986
5547,EFFINGHAM & NORTH,  36.838933, -76.306923
5548,COUNTY & DINWIDDIE,  36.833803, -76.302444
5549,COUNTY & DINWIDDIE,  36.833700, -76.302692
5550,COUNTY & ELM,  36.833427, -76.312236
5551,COUNTY & CRABAPPLE,  36.833498, -76.308900
5552,COUNTY & CRABAPPLE,  36.833619, -76.309233
5553,COUNTY & WASHINGTON,  36.833665, -76.304003
5554,COUNTY & GREEN,  36.833697, -76.305209
5555,COUNTY & PHOEBUS,  36.833566, -76.311545
5563,PEMBROKE & PARKDALE,  37.027813, -76.362021
5600,PEMBROKE & BACK RIVER,  37.029304, -76.355783
5601,PEMBROKE & BACK RIVER,  37.029100, -76.356486
5605,VIRGINIA BEACH & GRANBY,  36.857604, -76.289549
5606,VIRGINIA BEACH & GRANBY,  36.857658, -76.289109
5607,VIRGINIA BEACH & BOUSH,  36.857219, -76.290490
5611,PRINCESS ANNE & HILL PRINCE,  36.835081, -76.178225
5612,PEMBROKE & WAVERLY,  37.029359, -76.352763
5613,PEMBROKE & WAVERLY,  37.029498, -76.352087
5614,OCEAN VIEW & 4TH VIEW,  36.959383, -76.260198
5615,HAMPTON ROADS & RESPASS BEACH,  36.876956, -76.420115
5616,COLUMBUS & LEXINGTON,  36.819837, -76.324367
5617,TIDEWATER & EVANS,  36.934663, -76.254124
5618,PORTSMOUTH & MOHAWK,  36.816070, -76.362170
5619,HAMPTON ROADS & RESPASS BEACH,  36.876962, -76.420486
5620,PRECISION & LONDON BRIDGE,  36.821329, -76.052941
5621,COLLEGE PARK & BENNINGTON,  36.808985, -76.213873
5622,COLLEGE PARK & BRYNMAWR,  36.808877, -76.213599
5627,NORTH GATE GRUMMAN SHELTER,  37.002369, -76.443370
5631,WASHINGTON & 28TH,  36.979808, -76.431568
5633,OLD COURTHOUSE & WARWICK,  37.132450, -76.542688
5635,OLD COURTHOUSE & WARWICK (NP),  37.132293, -76.542545
5637,PORTSMOUTH & DAHLIA,  36.816116, -76.331605
5638,PORTSMOUTH & DEEP CREEK,  36.816348, -76.329531
5639,COLISEUM & VON SCHILLING,  37.043735, -76.389489
5640,COLISEUM & VON SCHILLING,  37.043545, -76.389820
5641,OCEAN VIEW & CHESAPEAKE ST,  36.947673, -76.240984
5644,BAINBRIDGE & SWAIN,  36.799353, -76.276616
5645,BAINBRIDGE & SMITH DOUGLAS,  36.774174, -76.286663
5646,BAINBRIDGE & CARVER,  36.761059, -76.288470
5647,BAINBRIDGE & REDSTART,  36.797204, -76.277277
5649,ELM & ANN,  36.840543, -76.313108
5650,ELM & ENTERPRISE,  36.838118, -76.313003
5653,ELM & ENTERPRISE,  36.837846, -76.312878
5654,ELM & ANN,  36.840409, -76.312985
5655,CRAWFORD & WEBSTER,  36.841237, -76.312319
5656,CRAWFORD & HATTON,  36.841275, -76.310198
5668,ELKHORN & 39TH,  36.880173, -76.307916
5669,ELKHORN & 41ST,  36.881853, -76.308001
5670,ELKHORN & 39TH,  36.880274, -76.307736
5671,ELKHORN & 42ND,  36.882422, -76.307823
5672,PRINCESS ANNE & BAXTER,  36.823732, -76.152666
5674,MILITARY & PROVIDENCE,  36.812512, -76.217009
5675,HARWOOD & ENTERPRISE,  37.175950, -76.589885
5676,MILITARY & OLD GREENBRIER,  36.798214, -76.233701
5677,BATTLEFIELD & KNELLS RIDGE,  36.750601, -76.246208
5678,GEORGE WASHINGTON & FERNDALE,  36.788937, -76.331786
5679,CAMELOT & DEEP CREEK,  36.781376, -76.343522
5691,8TH & JEFFERSON,  36.822263, -76.303301
5692,ORCUTT & SHARPLEY,  37.038212, -76.441093
5693,PARKS & 19TH,  36.845767, -75.985388
5694,PARKS & 20TH,  36.846365, -75.985753
5695,KEMPSVILLE & BONNEYDALE,  36.800614, -76.173555
5696,TOWNE POINT & RED BARD,  36.873925, -76.408553
5697,VICTORY CROSSING,  36.809854, -76.352007
5698,MILITARY & PARKVIEW,  36.794484, -76.238735
5699,MILITARY & PARKVIEW,  36.794328, -76.238483
5700,OLD GREENBRIER & WOODLAKE,  36.791096, -76.233722
5701,OLNEY & MOWBRAY,  36.857535, -76.293397
5705,BATTLEFIELD & WIMBLEDON,  36.743173, -76.243819
5706,MILITARY & LAKE HERBERT,  36.868158, -76.211180
5707,INDEPENDENCE & EWELL,  36.884119, -76.134321
5708,GENERAL BOOTH & CORPORATE LANDING,  36.774964, -76.006872
5712,SWEENEY & BIRCH,  37.075312, -76.362016
5713,BOULEVARD PARK TRANSFER AREA,  37.062280, -76.485255
5715,COMMUNITY COLLEGE & PRINCESS ANNE,  36.786118, -76.106291
5716,GENERAL BOOTH & CROATAN,  36.823426, -75.977913
5718,PACIFIC & 30TH,  36.858034, -75.979096
5719,GENERAL BOOTH & DAM NECK,  36.785341, -75.999874
5720,TIDEWATER & LEONARD,  36.920581, -76.253060
5721,TIDEWATER & MARVIN,  36.925248, -76.252408
5722,TIDEWATER & NORMAN,  36.929693, -76.253118
5723,TIDEWATER & WOODFORD,  36.931995, -76.253693
5724,TIDEWATER &  NORMAN,  36.929595, -76.253326
5725,TIDEWATER & MARVIN,  36.924911, -76.252620
5726,TIDEWATER & LEONARD,  36.920270, -76.253336
5727,VICTORY & ELMHURST,  36.809973, -76.358446
5728,VICTORY & FREEDOM,  36.804954, -76.354664
5730,PORTSMOUTH & DELAWARE,  36.815485, -76.357656
5731,GREENWOOD & NORMANDY,  36.801045, -76.351067
5732,MCLEAN & COLLEGE,  36.807193, -76.348026
5733,VIRGINIA BEACH & JETT,  36.856420, -76.224460
5734,CHURCH & WASHINGTON,  36.861351, -76.278526
5735,AIRLINE & PIERCE,  36.794806, -76.400351
5736,CEDAR & ALBEMARLE,  36.713227, -76.254918
5737,MILITARY btwn POPLAR HALL & MALL ENTRANCE,  36.850202, -76.209848
5738,FIRST COLONIAL & WILDWOOD,  36.861413, -76.027275
5740,BALLENTINE & LRT STATION,  36.846326, -76.252832
5741,NEWTOWN RD STATION (CURLEW & BANGOR),  36.841281, -76.189664
5742,TIDEWATER & GORDON,  36.860987, -76.271476
5743,TIDEWATER & WAUKESHA,  36.894704, -76.257097
5744,FORT NORFOLK STATION (BRAMBLETON & COLLEY),  36.859154, -76.304294
5750,CHESAPEAKE & BALVIEW,  36.946159, -76.244267
5751,CHESAPEAKE & BALVIEW,  36.946232, -76.244488
5752,PRINCESS ANNE & INGLESIDE,  36.862171, -76.246218
5753,LONDON & PENINSULA,  36.837029, -76.317311
5754,LONDON & PENINSULA,  36.837082, -76.318711
5759,WILSON & MANSON,  36.826020, -76.267832
5761,COLLEY & GATES,  36.869417, -76.297189
5763,RIVER WALK & GREAT BRIDGE,  36.746626, -76.267968
5764,RIVER WALK & GREAT BRIDGE 2,  36.743576, -76.258600
5765,CHESAPEAKE COMMUNITY SERVICE BOARD,  36.736142, -76.246832
5766,GRASSFIELD & CAHOON,  36.720677, -76.305211
5767,COLLEY & FAIRFAX,  36.859309, -76.301141
5769,COLLEY & SHIRLEY,  36.868006, -76.297926
5770,COLLEY & WASHINGTON PARK,  36.869296, -76.297050
5771,COLLEY & 41ST,  36.882155, -76.294777
5773,GEORGE MASON & JAMES MADISON,  36.751949, -76.062493
5774,CHESAPEAKE COMMUNITY SERVICE BOARD,  36.736271, -76.246779
5775,GREAT BRIDGE & TELFYAN,  36.740748, -76.254680
5776,GREAT BRIDGE & BETTES WAY,  36.745415, -76.260334
5777,GREAT BRIDGE & TIGER,  36.741612, -76.255875
5778,CEDAR & DOMINION,  36.726077, -76.298089
5779,REDGATE & CHILDRENS WAY,  36.863982, -76.301104
5780,NEWTOWN & VIRGINIA BEACH,  36.855342, -76.177259
5781,NEWTOWN & VIRGINIA BEACH,  36.855352, -76.177579
5782,FIRST COLONIAL & LAUREL,  36.853515, -76.022876
5783,FIRST COLONIAL & WOLFSNARE,  36.855456, -76.025168
5784,FIRST COLONIAL & CHANTILLY,  36.854063, -76.023723
5785,SHORE & MARLIN BAY,  36.907065, -76.110470
5786,SHORE & VISTA,  36.907606, -76.085707
5794,PACIFIC & 40TH,  36.867733, -75.981579
5818,PATRICK HENRY MALL,  37.110258, -76.493928
5819,HAMPTON ROADS & SHELL,  37.013969, -76.371072
5820,KING & OLD FOX HILL,  37.045302, -76.347843
5821,JEFFERSON & MEADOW CREEK,  37.153138, -76.531629
5822,JEFFERSON & TURNBERRY,  37.134587, -76.517128
5823,JEFFERSON & JEFFERSON COMMONS,  37.130533, -76.513952
5824,JEFFERSON & JEFFERSON COMMONS (across),  37.131294, -76.514147
5825,CANON & OLD OYSTER POINT,  37.103844, -76.480659
5826,BLAND & CAMPBELL,  37.121980, -76.524067
5827,HABERSHAW & CHATHAM,  37.121100, -76.509314
5828,HAMPTON & 49TH,  36.888598, -76.303014
5829,JEFFERSON & 44TH,  36.993573, -76.428374
5830,QUEEN & POWER PLANT,  37.025818, -76.385864
5832,DENBIGH & POCAHONTAS,  37.132776, -76.530785
5834,PEMBROKE & WOODLAND,  37.033803, -76.321316
5835,43RD & BOWDENS FERRY,  36.883359, -76.305084
5836,WEAVER & MARTHA LEE,  37.024524, -76.423839
5837,COMMANDER SHEPPARD & RESEARCH,  37.091314, -76.387130
5838,PINE CHAPEL & COLISEUM,  37.037952, -76.384620
5839,ARMISTEAD & LASALLE,  37.035338, -76.364222
5840,GRIMES & BANCROFT,  37.042969, -76.314786
5841,ANDREWS & REDFORD,  37.044737, -76.312998
5842,GRIMES & SOMERVILLE,  37.042158, -76.314814
5843,GRIMES & PEMBROKE,  37.038116, -76.314481
5846,LITTLE CREEK & VANPATTEN,  36.916801, -76.255820
5847,MILITARY & LOWERY,  36.863703, -76.210274
5848,AZALEA GARDEN & WINDEMERE,  36.885742, -76.222534
5849,MILITARY & AUBURN,  36.810337, -76.218735
5851,MARSHALL & TIMBER,  37.000014, -76.425949
5852,VIRGINIA BEACH & TOWN CENTER,  36.843349, -76.133165
5853,VIRGINIA BEACH & CENTRAL PARK,  36.843692, -76.133958
5854,NEWTOWN & CONNIE,  36.861397, -76.173298
5855,HAYGOOD & FERRY PLANTATION,  36.873322, -76.139387
5856,HAYGOOD & FERRY PLANTATION,  36.873695, -76.138726
5857,PORTSMOUTH & DOCK LANDING,  36.824842, -76.404397
5858,PORTSMOUTH & DOCK LANDING,  36.824964, -76.404158
5864,HAYGOOD & TWAIN,  36.874722, -76.136584
5865,HAYGOOD & HUNTING HILL,  36.871905, -76.143276
5866,HAYGOOD & CROSSBROUGH,  36.870359, -76.147095
5867,HAYGOOD & HAYGOOD,  36.868939, -76.150572
5868,NEWTOWN & LEARNING (ACROSS FROM),  36.865603, -76.158316
5869,BROAD MEADOWS & HENDERSON,  36.867026, -76.161560
5870,WESLEYAN & DIAMOND SPRINGS,  36.870891, -76.169692
5871,DIAMOND SPRINGS & HAMPSHIRE,  36.868257, -76.171007
5872,DIAMOND SPRINGS & NEWTOWN,  36.865543, -76.170403
5873,NEWTOWN & DANIEL SMITH,  36.862025, -76.173028
5874,DIAMOND SPRINGS & NEWTOWN,  36.865506, -76.170117
5875,DIAMOND SPRINGS & SHURNEY,  36.868082, -76.170575
5876,WESLEYAN & DIAMOND SPRINGS,  36.870497, -76.169125
5877,BROAD MEADOWS & JUSTIN,  36.869053, -76.163330
5878,BROAD MEADOWS & HENDERSON,  36.866752, -76.161712
5879,NEWTOWN & LEARNING,  36.865425, -76.158728
5880,HAYGOOD & ARAGONA,  36.869934, -76.147711
5881,HAYGOOD & HUNTING HILL,  36.871998, -76.142613
5882,HAYGOOD & TWAIN,  36.874563, -76.136518
5885,CEDAR & CEDAR LANE,  36.711014, -76.260444
5887,PORT CENTRE & LINCOLN,  36.826817, -76.299690
5888,BRAMBLETON & YARMOUTH,  36.853881, -76.293681
5889,BRAMBLETON & YARMOUTH,  36.854098, -76.293842
5890,4 TH & BELLINGER,  36.945206, -76.295872
5891,4TH & BELLINGER,  36.945171, -76.295763
5892,BROAD MEADOWS & WESLEYAN,  36.869237, -76.163297
5894,LONDON & JAMESTOWN,  36.837277, -76.324472
5896,STARMOUNT & OLD JOLLIFF,  36.819439, -76.441296
5900,INGRAM & MORTON,  36.924683, -76.305999
5901,INDIAN RIVER & WINGFIELD,  36.827436, -76.246303
5902,LYNNHAVEN & INDEPENDENCE,  36.795107, -76.109516
5903,CEDAR & HOLT,  36.714576, -76.251746
5906,21ST & MANTEO,  36.870160, -76.294630
5907,GILBERT & BAINBRIDGE 2,  36.947925, -76.307872
5909,TURNPIKE & COMMONWEALTH,  36.822667, -76.342868
5910,26TH & COLLEY,  36.874275, -76.294893
5911,GREAT NECK & FIRST COLONIAL,  36.875467, -76.039686
5912,GREAT NECK & FIRST COLONIAL,  36.874091, -76.039050
5914,GREAT NECK & POPLAR POINT,  36.878229, -76.041857
5915,FIRST COLONIAL & MILL DAM,  36.868857, -76.031457
5916,FIRST COLONIAL & MILL DAM,  36.869390, -76.032527
5917,GREAT NECK & MILL DAM,  36.878254, -76.041569
5918,MALLORY & BUCKROE,  37.042696, -76.293576
5919,MALLORY & BUCKROE,  37.042699, -76.293450
5920,1ST VIEW & RIDGEWELL,  36.946507, -76.267427
5921,27TH & COLONIAL,  36.873830, -76.290320
5922,26TH & COLONIAL,  36.872799, -76.289879
5923,NGGRUM WALK IN GATE,  37.003404, -76.444359
5925,VIRGINIA & PIERSEY,  36.945100, -76.322648
5926,SECOND & ESCORT,  36.941126, -76.325528
5938,OCEAN VIEW & 8TH VIEW,  36.965287, -76.272150
5939,BROAD & ACORN,  36.799553, -76.260779
5940,INDIAN RIVER & MCDONALD,  36.819694, -76.222922
5941,MARYLAND & POWHATAN,  36.949712, -76.319379
5942,MARYLAND & BUNKER HILL,  36.952846, -76.319641
5943,LYNNHAVEN & MAGIC HOLLOW,  36.806763, -76.078124
5944,VICTORY & GREENWOOD,  36.801635, -76.352692
5945,PORTSMOUTH & HODGES FERRY,  36.821330, -76.390489
7866,BIG BETHEL & RADFORD,  37.050005, -76.429022
8001,EVMC/FORT NORFOLK,  36.858697, -76.303490
8002,YORK STREET/FREEMASON,  36.853569, -76.293885
8003,MONTICELLO,  36.851187, -76.288796
8004,MACARTHUR SQUARE,  36.847201, -76.290229
8005,CIVIC PLAZA,  36.845731, -76.285587
8006,HARBOR PARK,  36.844006, -76.278042
8007,NSU,  36.845864, -76.269374
8008,BALLENTINE/BROAD CREEK,  36.846190, -76.253188
8009,INGLESIDE ROAD,  36.842736, -76.235020
8010,MILITARY HIGHWAY,  36.841460, -76.213126
8011,NEWTOWN ROAD,  36.841048, -76.190226
8851,GILBERT & FARRAGUT 2,  36.947691, -76.310679
8852,FIRST & GILBERT,  36.948126, -76.302906
8858,BELLINGER & THIRD,  36.944373, -76.299387
8859,BELLINGER & FOURTH,  36.944540, -76.296243
8861,GILBERT & FIRST,  36.948262, -76.302861
8863,GILBERT & BACON,  36.947465, -76.316549
8864,GILBERT & MARYLAND,  36.947351, -76.319116
8865,VIRGINIA & DILLINGHAM,  36.951234, -76.323191
8866,MORRIS & VIRGINIA,  36.945847, -76.324400
8869,MORRIS & VIRGINIA,  36.945947, -76.324301
8870,SECOND & A,  36.938407, -76.325161
8871,SECOND & ESCORT,  36.941135, -76.325411
8874,5TH & A,  36.946426, -76.280710
8875,5TH & BELLINGER,  36.945656, -76.280541
8877,A & PARK,  36.947226, -76.278274
8878,A & SEVENTH,  36.947881, -76.275554
8879,A & SEVENTH,  36.947782, -76.276272
8880,SEVENTH &  A,  36.947935, -76.275193
9002,GILMERTON & LAKE VILLAGE,  36.778276, -76.329045
9061,CLEMWOOD & LITTLE BACK RIVER,  37.062580, -76.340519
9121,GENERAL BOOTH & DAM NECK,  36.786561, -75.999225
9127,UPTON & NIMMO,  36.760281, -76.005595
9143,38TH & BLUESTONE,  36.879505, -76.304703
9145,49TH & QUARANTINE,  36.887452, -76.307583
9158,POWHATAN & 46TH,  36.884765, -76.312530
9173,INDIAN RIVER & KEMPSVILLE,  36.796511, -76.173416
9181,PHILPOTTS & SEWELLS POINT,  36.898876, -76.242419
9199,WINGFIELD & BERKLEY,  36.817617, -76.252028
9200,BORDER & STALHAM,  36.815417, -76.248794
9206,BETHEL & HARLING,  36.820907, -76.254002
9217,FIRESIDE & PARKSIDE,  36.812099, -76.251686
9219,FIRESIDE & STALHAM,  36.811940, -76.251424
9235,BALLENTINE & VIRGINIA BEACH,  36.852016, -76.248093
9250,SECOND & B,  36.937117, -76.325188
9301,KING & INGRAM,  36.924726, -76.303575
9305,NOEMFOOR & ENIWETOK,  36.920969, -76.308956
9308,ENIWETOK & CORREGIDOR,  36.921826, -76.309092
9311,BLANDY & MITSCHER,  36.922705, -76.301885
9312,INGERSOL & INGRAM,  36.923547, -76.307284
9315,DIVEN & MONROVIA,  36.926666, -76.292195
9327,MAIN & GRANBY,  36.846338, -76.292195
9328,GRANBY & CITY HALL,  36.847744, -76.291510
9329,GRANBY & COLLEGE,  36.849895, -76.290417
9381,FIRST COLONIAL & COLONIAL MEDICAL,  36.863605, -76.028284
9387,SETTLERS LANDING & HAMPTON HARBOR,  37.025218, -76.332939
9399,LINCOLN & 7TH,  36.824749, -76.304340
9421,AFTON & FARRAGUT,  36.800485, -76.316688
9423,ROOSEVELT & VAUGHN,  36.793008, -76.364398
9429,ROOSEVELT & VAUGHN,  36.792884, -76.364095
9498,74TH & MARSHALL,  37.015553, -76.435144
9499,44TH & ROANOKE,  36.998268, -76.416632
9510,CRISTON & HANCOCK,  37.106786, -76.490863
9511,CRISTON & HANCOCK,  37.106894, -76.490621
9558,MILITARY HWY STATION (CURLEW & CORPORATE),  36.841546, -76.212587
9802,BELLINGER & FOURTH,  36.944652, -76.295936
9803,BELLINGER & 5TH,  36.944896, -76.279858
F001,FERRY STOP - WATERSIDE,  36.844025, -76.289408
F002,FERRY STOP - HIGH ST,  36.835489, -76.296861
F003,FERRY STOP - NORTH LANDING,  36.839156, -76.296782
W0002,GREENBRIAR & SHELL,  37.003163, -76.394385
W0004,REGIONAL & 58TH,  37.014253, -76.406694
W0009,GREENBRIAR & SHELL,  37.003104, -76.394499
