stop_id,stop_code,stop_name,stop_lat,stop_lon,stop_url
83,51001,"Ballston Metro, Fairfax Dr, EB @ N Stafford St, NS",38.882092,-77.110876,"http://www.arlingtontransit.com/pages/rider-tools/realtime/?Stop=A51001#realTimeResultsContainer"
84,51002,"Fairfax Drive, WB @ N Taylor Street, NS",38.882281,-77.112455,"http://www.arlingtontransit.com/pages/rider-tools/realtime/?Stop=A51002#realTimeResultsContainer"
85,51003,"Fairfax Drive, WB @ N Utah Street, FS",38.882254,-77.114353,"http://www.arlingtontransit.com/pages/rider-tools/realtime/?Stop=A51003#realTimeResultsContainer"
87,51005,"16th Street N, WB @ N Glebe Road, FS",38.889456,-77.119528,"http://www.arlingtontransit.com/pages/rider-tools/realtime/?Stop=A51005#realTimeResultsContainer"
88,51006,"16th Street N, WB @ N Abingdon Street, NS",38.889263,-77.120423,"http://www.arlingtontransit.com/pages/rider-tools/realtime/?Stop=A51006#realTimeResultsContainer"
89,51007,"16th Street N, WB @ N Buchanan Street, NS",38.888870,-77.122233,"http://www.arlingtontransit.com/pages/rider-tools/realtime/?Stop=A51007#realTimeResultsContainer"
90,51008,"16th Street N, WB @ N Edison Street, NS",38.888282,-77.125114,"http://www.arlingtontransit.com/pages/rider-tools/realtime/?Stop=A51008#realTimeResultsContainer"
91,51009,"N George Mason Dr, NB @ Virginia Hospital Ctr, MB",38.888909,-77.128507,"http://www.arlingtontransit.com/pages/rider-tools/realtime/?Stop=A51009#realTimeResultsContainer"
92,51010,"N George Mason Drive, NB @ 19th Street N, NS",38.891314,-77.129508,"http://www.arlingtontransit.com/pages/rider-tools/realtime/?Stop=A51010#realTimeResultsContainer"
93,51011,"N George Mason Drive, NB @ 20th Street N, NS",38.892847,-77.130516,"http://www.arlingtontransit.com/pages/rider-tools/realtime/?Stop=A51011#realTimeResultsContainer"
94,51012,"Patrick Henry Drive, WB @ N Harrison Street, NS",38.893437,-77.133429,"http://www.arlingtontransit.com/pages/rider-tools/realtime/?Stop=A51012#realTimeResultsContainer"
95,51013,"N Harrison Street, NB @ Lee Highway, NS",38.896116,-77.137309,"http://www.arlingtontransit.com/pages/rider-tools/realtime/?Stop=A51013#realTimeResultsContainer"
96,51014,"Lee Highway, EB @ N George Mason Drive, MB",38.896282,-77.136024,"http://www.arlingtontransit.com/pages/rider-tools/realtime/?Stop=A51014#realTimeResultsContainer"
97,51201,"N George Mason Drive, SB @ Lee Highway, FS",38.895711,-77.133587,"http://www.arlingtontransit.com/pages/rider-tools/realtime/?Stop=A51201#realTimeResultsContainer"
98,51202,"N George Mason Drive, SB @ Patrick Henry Drive, NS",38.894408,-77.132048,"http://www.arlingtontransit.com/pages/rider-tools/realtime/?Stop=A51202#realTimeResultsContainer"
99,51203,"N George Mason Drive, SB @ 20th Street N, FS",38.892639,-77.130724,"http://www.arlingtontransit.com/pages/rider-tools/realtime/?Stop=A51203#realTimeResultsContainer"
100,51209,"N George Mason Drive, SB @ 19th Street N, FS",38.891075,-77.129646,"http://www.arlingtontransit.com/pages/rider-tools/realtime/?Stop=A51209#realTimeResultsContainer"
101,51210,"N George Mason Dr, SB @ Virginia Hospital Ctr, MB",38.889413,-77.128931,"http://www.arlingtontransit.com/pages/rider-tools/realtime/?Stop=A51210#realTimeResultsContainer"
102,51211,"16th Street N, EB @ N Edison Street, NS",38.888122,-77.125513,"http://www.arlingtontransit.com/pages/rider-tools/realtime/?Stop=A51211#realTimeResultsContainer"
103,51212,"16th Street N, EB @ N Buchanan Street, NS",38.888716,-77.122516,"http://www.arlingtontransit.com/pages/rider-tools/realtime/?Stop=A51212#realTimeResultsContainer"
104,51213,"16th Street N, EB @ N Abingdon, NS",38.889080,-77.120731,"http://www.arlingtontransit.com/pages/rider-tools/realtime/?Stop=A51213#realTimeResultsContainer"
105,51214,"16th Street N, EB @ N Glebe Road, NS",38.889364,-77.119311,"http://www.arlingtontransit.com/pages/rider-tools/realtime/?Stop=A51214#realTimeResultsContainer"
106,51215,"N Glebe Road, SB @ 15th Street N, NS",38.888619,-77.118886,"http://www.arlingtontransit.com/pages/rider-tools/realtime/?Stop=A51215#realTimeResultsContainer"
107,51216,"N Glebe Road, SB @ 13th Street N, NS",38.886987,-77.118130,"http://www.arlingtontransit.com/pages/rider-tools/realtime/?Stop=A51216#realTimeResultsContainer"
108,51217,"N Glebe Road, SB @ Washington Blvd, FS",38.884699,-77.117061,"http://www.arlingtontransit.com/pages/rider-tools/realtime/?Stop=A51217#realTimeResultsContainer"
109,51218,"Fairfax Drive, EB @ N Vermont Street, FS",38.881980,-77.114572,"http://www.arlingtontransit.com/pages/rider-tools/realtime/?Stop=A51218#realTimeResultsContainer"
110,51219,"Fairfax Drive, EB @ N Taylor Street, NS",38.882021,-77.112980,"http://www.arlingtontransit.com/pages/rider-tools/realtime/?Stop=A51219#realTimeResultsContainer"
111,52001,"N Quincy Street, NB @ 10th Street N, FS",38.883656,-77.107762,"http://www.arlingtontransit.com/pages/rider-tools/realtime/?Stop=A52001#realTimeResultsContainer"
112,52002,"Washington Blvd, WB @ N Stafford Street, NS",38.885665,-77.110737,"http://www.arlingtontransit.com/pages/rider-tools/realtime/?Stop=A52002#realTimeResultsContainer"
114,52004,"Washington Blvd, WB @ N Utah Street, NS",38.885565,-77.113960,"http://www.arlingtontransit.com/pages/rider-tools/realtime/?Stop=A52004#realTimeResultsContainer"
115,52005,"Washington Blvd, WB @ N Vermont Street, NS",38.885505,-77.116057,"http://www.arlingtontransit.com/pages/rider-tools/realtime/?Stop=A52005#realTimeResultsContainer"
116,52006,"Washington Blvd, WB @ N Glebe Road, FS",38.885482,-77.117833,"http://www.arlingtontransit.com/pages/rider-tools/realtime/?Stop=A52006#realTimeResultsContainer"
117,52007,"Washington Blvd, WB @ N Buchanan Street, NS",38.885340,-77.121054,"http://www.arlingtontransit.com/pages/rider-tools/realtime/?Stop=A52007#realTimeResultsContainer"
118,52008,"Washington Blvd, WB @ N Evergreen Street, FS",38.885192,-77.125861,"http://www.arlingtontransit.com/pages/rider-tools/realtime/?Stop=A52008#realTimeResultsContainer"
119,52009,"N George Mason Drive, NB @ 22nd Street N, NS",38.894542,-77.131840,"http://www.arlingtontransit.com/pages/rider-tools/realtime/?Stop=A52009#realTimeResultsContainer"
120,52010,"N George Mason Drive, NB @ Lee Highway, FS",38.896653,-77.133500,"http://www.arlingtontransit.com/pages/rider-tools/realtime/?Stop=A52010#realTimeResultsContainer"
121,52011,"N George Mason Drive, NB @ 25th Street N, NS",38.898361,-77.133641,"http://www.arlingtontransit.com/pages/rider-tools/realtime/?Stop=A52011#realTimeResultsContainer"
122,52012,"N George Mason Drive, NB @ 25th Place N, NS",38.899407,-77.134855,"http://www.arlingtontransit.com/pages/rider-tools/realtime/?Stop=A52012#realTimeResultsContainer"
123,52013,"N George Mason Drive, NB @ 27th Street N, NS",38.901183,-77.135728,"http://www.arlingtontransit.com/pages/rider-tools/realtime/?Stop=A52013#realTimeResultsContainer"
124,52014,"Yorktown Blvd, WB @ N Edison Street, NS",38.903021,-77.136861,"http://www.arlingtontransit.com/pages/rider-tools/realtime/?Stop=A52014#realTimeResultsContainer"
125,52015,"Yorktown Blvd, WB @ 30th Street N, NS",38.903553,-77.139189,"http://www.arlingtontransit.com/pages/rider-tools/realtime/?Stop=A52015#realTimeResultsContainer"
126,52016,"Yorktown Blvd, WB @ Little Falls Road, NS",38.903995,-77.141338,"http://www.arlingtontransit.com/pages/rider-tools/realtime/?Stop=A52016#realTimeResultsContainer"
127,52017,"Yorktown Blvd, WB @ N Harrison Drive, FS",38.903939,-77.144780,"http://www.arlingtontransit.com/pages/rider-tools/realtime/?Stop=A52017#realTimeResultsContainer"
128,52018,"Little Falls Road, WB @ N John Marshall Drive, NS",38.901976,-77.149028,"http://www.arlingtontransit.com/pages/rider-tools/realtime/?Stop=A52018#realTimeResultsContainer"
129,52019,"Little Falls Road, WB @ N Ohio Street, FS",38.901090,-77.152507,"http://www.arlingtontransit.com/pages/rider-tools/realtime/?Stop=A52019#realTimeResultsContainer"
130,52020,"Little Falls Road, WB @ Williamsburg Blvd, NS",38.900944,-77.155607,"http://www.arlingtontransit.com/pages/rider-tools/realtime/?Stop=A52020#realTimeResultsContainer"
131,52021,"Williamsburg Blvd, SB @ N Powhatan Street, FS",38.900581,-77.156718,"http://www.arlingtontransit.com/pages/rider-tools/realtime/?Stop=A52021#realTimeResultsContainer"
132,52022,"Williamsburg Blvd, SB @ N Rochester Street, FS",38.899135,-77.160237,"http://www.arlingtontransit.com/pages/rider-tools/realtime/?Stop=A52022#realTimeResultsContainer"
133,52024,"N Trindad Street, SB @ Williamsburg Blvd, FS",38.897187,-77.162273,"http://www.arlingtontransit.com/pages/rider-tools/realtime/?Stop=A52024#realTimeResultsContainer"
134,52025,"N Trindad Street, SB @ Little Falls Road, FS",38.896049,-77.160611,"http://www.arlingtontransit.com/pages/rider-tools/realtime/?Stop=A52025#realTimeResultsContainer"
135,52026,"26th Street N, EB @ N Sycamore Street, NS",38.894392,-77.157834,"http://www.arlingtontransit.com/pages/rider-tools/realtime/?Stop=A52026#realTimeResultsContainer"
136,52027,"N Sycamore Street, SB @ Lee Highway, FS",38.889853,-77.156524,"http://www.arlingtontransit.com/pages/rider-tools/realtime/?Stop=A52027#realTimeResultsContainer"
137,52028,"N Sycamore Street, SB @ Washington Blvd, FS",38.888168,-77.156449,"http://www.arlingtontransit.com/pages/rider-tools/realtime/?Stop=A52028#realTimeResultsContainer"
138,52029,"East Falls Church Metro, Sycamore Street @ Bay A",38.886727,-77.156790,"http://www.arlingtontransit.com/pages/rider-tools/realtime/?Stop=A52029#realTimeResultsContainer"
140,52202,"N Sycamore Street, NB @ Washington Blvd, FS",38.887912,-77.156185,"http://www.arlingtontransit.com/pages/rider-tools/realtime/?Stop=A52202#realTimeResultsContainer"
141,52203,"N Sycamore Street, NB @ 24th Street N, NS",38.891168,-77.156420,"http://www.arlingtontransit.com/pages/rider-tools/realtime/?Stop=A52203#realTimeResultsContainer"
143,52205,"N Trindad Street, NB @ Williamsburg Blvd, NS",38.897235,-77.162083,"http://www.arlingtontransit.com/pages/rider-tools/realtime/?Stop=A52205#realTimeResultsContainer"
144,52206,"N Trindad Street, NB @ Little Falls Road, NS",38.896164,-77.160510,"http://www.arlingtontransit.com/pages/rider-tools/realtime/?Stop=A52206#realTimeResultsContainer"
145,52207,"Williamsburg Blvd, NB @ N Rochester Street, NS",38.898986,-77.160087,"http://www.arlingtontransit.com/pages/rider-tools/realtime/?Stop=A52207#realTimeResultsContainer"
146,52208,"Williamsburg Blvd, NB @ N Sycamore Street, NS",38.899871,-77.157030,"http://www.arlingtontransit.com/pages/rider-tools/realtime/?Stop=A52208#realTimeResultsContainer"
147,52210,"Little Falls Road, EB @ Williamsburg Blvd, FS",38.900612,-77.154497,"http://www.arlingtontransit.com/pages/rider-tools/realtime/?Stop=A52210#realTimeResultsContainer"
148,52211,"Little Falls Road, EB @ N Ohio Street, FS",38.900996,-77.151986,"http://www.arlingtontransit.com/pages/rider-tools/realtime/?Stop=A52211#realTimeResultsContainer"
149,52212,"Little Falls Road, EB @ N Lexington Street, NS",38.901943,-77.148652,"http://www.arlingtontransit.com/pages/rider-tools/realtime/?Stop=A52212#realTimeResultsContainer"
150,52213,"Yorktown Blvd, EB @ N Harrison Drive, NS",38.903735,-77.144801,"http://www.arlingtontransit.com/pages/rider-tools/realtime/?Stop=A52213#realTimeResultsContainer"
151,52214,"Yorktown Blvd, EB @ N Greenbrier Street, FS",38.903839,-77.141537,"http://www.arlingtontransit.com/pages/rider-tools/realtime/?Stop=A52214#realTimeResultsContainer"
152,52215,"Yorktown Blvd, EB @ 30th Street N, NS",38.903370,-77.139186,"http://www.arlingtontransit.com/pages/rider-tools/realtime/?Stop=A52215#realTimeResultsContainer"
153,52216,"Yorktown Blvd, EB @ N Edison Street, FS",38.902875,-77.136924,"http://www.arlingtontransit.com/pages/rider-tools/realtime/?Stop=A52216#realTimeResultsContainer"
154,52217,"N George Mason Drive, SB @ 27th Street N, NS",38.901566,-77.136156,"http://www.arlingtontransit.com/pages/rider-tools/realtime/?Stop=A52217#realTimeResultsContainer"
155,52218,"N George Mason Drive, SB @ 26th Street N, NS",38.900150,-77.135734,"http://www.arlingtontransit.com/pages/rider-tools/realtime/?Stop=A52218#realTimeResultsContainer"
156,52219,"N George Mason Drive, SB @ 25th Road N, NS",38.898968,-77.134675,"http://www.arlingtontransit.com/pages/rider-tools/realtime/?Stop=A52219#realTimeResultsContainer"
157,52220,"N George Mason Drive, SB @ 16th Street N, NS",38.887832,-77.128342,"http://www.arlingtontransit.com/pages/rider-tools/realtime/?Stop=A52220#realTimeResultsContainer"
158,52221,"Washington Blvd, EB @ N Evergreen Street, NS",38.885027,-77.125409,"http://www.arlingtontransit.com/pages/rider-tools/realtime/?Stop=A52221#realTimeResultsContainer"
159,52222,"Washington Blvd, EB @ N Buchanan Street, NS",38.885184,-77.121318,"http://www.arlingtontransit.com/pages/rider-tools/realtime/?Stop=A52222#realTimeResultsContainer"
160,52223,"Washington Blvd, EB @ N Vernon Street, NS",38.885341,-77.116348,"http://www.arlingtontransit.com/pages/rider-tools/realtime/?Stop=A52223#realTimeResultsContainer"
162,52225,"Washington Blvd, EB @ N Stafford Street, NS",38.885520,-77.111140,"http://www.arlingtontransit.com/pages/rider-tools/realtime/?Stop=A52225#realTimeResultsContainer"
163,52226,"N Quincy Street, SB @ 10th Street N, NS",38.883416,-77.107941,"http://www.arlingtontransit.com/pages/rider-tools/realtime/?Stop=A52226#realTimeResultsContainer"
164,52209,"Williamsburg Blvd, NB @ Little Falls Road, NS",38.900490,-77.156195,"http://www.arlingtontransit.com/pages/rider-tools/realtime/?Stop=A52209#realTimeResultsContainer"
183,74001,"Pentagon Cty Metro, 12th St S, EB @ S Hayes St, FS",38.862859,-77.059020,"http://www.arlingtontransit.com/pages/rider-tools/realtime/?Stop=A74001#realTimeResultsContainer"
184,42020,"Columbia Pike, EB @ S Rolfe Street, NS",38.865398,-77.075674,"http://www.arlingtontransit.com/pages/rider-tools/realtime/?Stop=A42020#realTimeResultsContainer"
185,42209,"Columbia Pike, WB @ S Rolfe Street, FS",38.865621,-77.075445,"http://www.arlingtontransit.com/pages/rider-tools/realtime/?Stop=A42209#realTimeResultsContainer"
186,73205,"12TH ST S & S QUINN ST",38.863518,-77.074662,"http://www.arlingtontransit.com/pages/rider-tools/realtime/?Stop=A73205#realTimeResultsContainer"
188,73202,"S Queen Street, SB @ 12th Street S, NS",38.864053,-77.073448,"http://www.arlingtontransit.com/pages/rider-tools/realtime/?Stop=A73202#realTimeResultsContainer"
190,73204,"13th Road S, WB @ S Rolfe Street, NS",38.862131,-77.074278,"http://www.arlingtontransit.com/pages/rider-tools/realtime/?Stop=A73204#realTimeResultsContainer"
193,73203,"13th Road S, WB @ S Queen Street, FS",38.862300,-77.072889,"http://www.arlingtontransit.com/pages/rider-tools/realtime/?Stop=A73203#realTimeResultsContainer"
195,74021,"Columbia Pike, EB @ S Barton Street, FS",38.863351,-77.083518,"http://www.arlingtontransit.com/pages/rider-tools/realtime/?Stop=A74021#realTimeResultsContainer"
197,73226,"S Barton Street, SB @ Arlington Village sign, FS",38.862726,-77.083977,"http://www.arlingtontransit.com/pages/rider-tools/realtime/?Stop=A73226#realTimeResultsContainer"
198,73022,"S Barton Street, NB @ at 1201 S Barton #167, FS",38.860947,-77.082992,"http://www.arlingtontransit.com/pages/rider-tools/realtime/?Stop=A73022#realTimeResultsContainer"
199,73207,"S Barton Street, SB @ at 1210 S Barton St, NS",38.860953,-77.083175,"http://www.arlingtontransit.com/pages/rider-tools/realtime/?Stop=A73207#realTimeResultsContainer"
200,73227,"S Barton Street, SB @ at 1414 S Barton St, FS",38.858864,-77.082618,"http://www.arlingtontransit.com/pages/rider-tools/realtime/?Stop=A73227#realTimeResultsContainer"
201,74019,"S Barton Street, NB @ at 1401 S Barton #243, NS",38.859060,-77.082637,"http://www.arlingtontransit.com/pages/rider-tools/realtime/?Stop=A74019#realTimeResultsContainer"
202,74018,"S Barton Street, NB @ 16th Street S, FS",38.858024,-77.081825,"http://www.arlingtontransit.com/pages/rider-tools/realtime/?Stop=A74018#realTimeResultsContainer"
203,73208,"S Barton Street, SB @ 16th Street S, NS",38.857930,-77.081947,"http://www.arlingtontransit.com/pages/rider-tools/realtime/?Stop=A73208#realTimeResultsContainer"
204,74017,"16th Street S, EB @ S Edgewood Street, NS",38.857353,-77.084659,"http://www.arlingtontransit.com/pages/rider-tools/realtime/?Stop=A74017#realTimeResultsContainer"
205,73209,"16th Street S, WB @ S Edgewood Street, FS",38.857421,-77.084886,"http://www.arlingtontransit.com/pages/rider-tools/realtime/?Stop=A73209#realTimeResultsContainer"
206,73210,"16th Street S, WB @ Walter Reed Drive, NS",38.856788,-77.087858,"http://www.arlingtontransit.com/pages/rider-tools/realtime/?Stop=A73210#realTimeResultsContainer"
207,74016,"16th Street S, EB @ S Walter Reed Drive, FS",38.856638,-77.087975,"http://www.arlingtontransit.com/pages/rider-tools/realtime/?Stop=A74016#realTimeResultsContainer"
213,74010,"16th Street S, WB @ S Oakland Street, NS",38.855021,-77.093969,"http://www.arlingtontransit.com/pages/rider-tools/realtime/?Stop=A74010#realTimeResultsContainer"
214,74011,"S Quincy Street, SB @ 16th Street S, FS",38.853803,-77.096454,"http://www.arlingtontransit.com/pages/rider-tools/realtime/?Stop=A74011#realTimeResultsContainer"
221,74004,"24th Road S, EB @ S Glebe Road, NS",38.848038,-77.081209,"http://www.arlingtontransit.com/pages/rider-tools/realtime/?Stop=A74004#realTimeResultsContainer"
222,74003,"Shirlington Road, NB @ 25th Street S, NS",38.846976,-77.083698,"http://www.arlingtontransit.com/pages/rider-tools/realtime/?Stop=A74003#realTimeResultsContainer"
223,74002,"Shirlington Road, NB @ S Kemper Road, FS",38.844742,-77.084493,"http://www.arlingtontransit.com/pages/rider-tools/realtime/?Stop=A74002#realTimeResultsContainer"
225,75102,"S Frederick Street, NB @ S George Mason Drive, FS",38.848789,-77.112813,"http://www.arlingtontransit.com/pages/rider-tools/realtime/?Stop=A75102#realTimeResultsContainer"
226,75020,"S Frederick Street, SB @ S George Mason Drive, NS",38.848647,-77.112796,"http://www.arlingtontransit.com/pages/rider-tools/realtime/?Stop=A75020#realTimeResultsContainer"
227,75103,"S Frederick Street, NB @ 12th Street S, NS",38.849960,-77.113828,"http://www.arlingtontransit.com/pages/rider-tools/realtime/?Stop=A75103#realTimeResultsContainer"
228,75019,"S Frederick Street, SB @ 12th Street S, NS",38.850177,-77.114060,"http://www.arlingtontransit.com/pages/rider-tools/realtime/?Stop=A75019#realTimeResultsContainer"
229,75104,"S Frederick Street, NB @ 11th Street S, NS",38.851395,-77.114401,"http://www.arlingtontransit.com/pages/rider-tools/realtime/?Stop=A75104#realTimeResultsContainer"
230,75018,"S Frederick Street, SB @ 11th Street S, NS",38.851693,-77.114669,"http://www.arlingtontransit.com/pages/rider-tools/realtime/?Stop=A75018#realTimeResultsContainer"
231,75105,"S Frederick Street, NB @ 10th Street S, NS",38.853812,-77.114876,"http://www.arlingtontransit.com/pages/rider-tools/realtime/?Stop=A75105#realTimeResultsContainer"
232,75017,"S Frederick Street, SB @ 10th Street S, NS",38.853934,-77.115020,"http://www.arlingtontransit.com/pages/rider-tools/realtime/?Stop=A75017#realTimeResultsContainer"
233,75106,"Columbia Pike, EB @ S Fredrick Street, FS",38.854716,-77.114985,"http://www.arlingtontransit.com/pages/rider-tools/realtime/?Stop=A75106#realTimeResultsContainer"
234,41226,"Columbia Pike, WB @ S Frederick Street, NS",38.854926,-77.114921,"http://www.arlingtontransit.com/pages/rider-tools/realtime/?Stop=A41226#realTimeResultsContainer"
235,41227,"Columbia Pike, WB @ S Greenbrier Street, NS",38.854300,-77.116978,"http://www.arlingtontransit.com/pages/rider-tools/realtime/?Stop=A41227#realTimeResultsContainer"
236,41225,"Columbia Pike, WB @ S Dinwiddie Street, FS",38.855729,-77.112897,"http://www.arlingtontransit.com/pages/rider-tools/realtime/?Stop=A41225#realTimeResultsContainer"
237,41001,"S Dinwiddie Street, SB @ Columbia Pike, NS",38.856335,-77.112638,"http://www.arlingtontransit.com/pages/rider-tools/realtime/?Stop=A41001#realTimeResultsContainer"
239,41228,"S Greenbrier Street, NB @ Mid Block, MB",38.855668,-77.118447,"http://www.arlingtontransit.com/pages/rider-tools/realtime/?Stop=A41228#realTimeResultsContainer"
240,75108,"S Dinwiddie Street, NB @ 9th Street S, NS",38.856487,-77.112483,"http://www.arlingtontransit.com/pages/rider-tools/realtime/?Stop=A75108#realTimeResultsContainer"
244,41003,"Columbia Pike, EB @ S Thomas Street, NS",38.857735,-77.104579,"http://www.arlingtontransit.com/pages/rider-tools/realtime/?Stop=A41003#realTimeResultsContainer"
245,41223,"Columbia Pike, WB @ S Thomas Street, NS",38.858095,-77.104040,"http://www.arlingtontransit.com/pages/rider-tools/realtime/?Stop=A41223#realTimeResultsContainer"
246,41004,"Columbia Pike, EB @ S George Mason Drive, NS",38.858588,-77.101427,"http://www.arlingtontransit.com/pages/rider-tools/realtime/?Stop=A41004#realTimeResultsContainer"
247,41222,"Columbia Pike, WB @ S George Mason Drive, NS",38.859058,-77.100698,"http://www.arlingtontransit.com/pages/rider-tools/realtime/?Stop=A41222#realTimeResultsContainer"
248,41005,"Columbia Pike, EB @ S Quincy Street, NS",38.859276,-77.099212,"http://www.arlingtontransit.com/pages/rider-tools/realtime/?Stop=A41005#realTimeResultsContainer"
249,41221,"Columbia Pike, WB @ S Quincy Street, FS",38.859533,-77.099049,"http://www.arlingtontransit.com/pages/rider-tools/realtime/?Stop=A41221#realTimeResultsContainer"
250,41006,"Columbia Pike, EB @ S Oakland Street, NS",38.860145,-77.095991,"http://www.arlingtontransit.com/pages/rider-tools/realtime/?Stop=A41006#realTimeResultsContainer"
251,41220,"Columbia Pike, WB @ S Oakland Street, NS",38.860498,-77.095501,"http://www.arlingtontransit.com/pages/rider-tools/realtime/?Stop=A41220#realTimeResultsContainer"
252,41007,"Columbia Pike, EB @ S Monroe Street, FS",38.860800,-77.093600,"http://www.arlingtontransit.com/pages/rider-tools/realtime/?Stop=A41007#realTimeResultsContainer"
253,41219,"Columbia Pike, WB @ S Monroe Street, NS",38.860922,-77.093685,"http://www.arlingtontransit.com/pages/rider-tools/realtime/?Stop=A41219#realTimeResultsContainer"
254,41218,"S Glebe Road, SB @ Columbia Pike, NS",38.861576,-77.092225,"http://www.arlingtontransit.com/pages/rider-tools/realtime/?Stop=A41218#realTimeResultsContainer"
255,41008,"S Glebe Road, NB @ Columbia Pike, FS",38.861734,-77.091872,"http://www.arlingtontransit.com/pages/rider-tools/realtime/?Stop=A41008#realTimeResultsContainer"
262,41217,"S Glebe Road, SB @ 8th Street S, NS",38.864809,-77.092597,"http://www.arlingtontransit.com/pages/rider-tools/realtime/?Stop=A41217#realTimeResultsContainer"
265,41009,"S Glebe Road, NB @ 7th Street S, NS",38.865510,-77.092870,"http://www.arlingtontransit.com/pages/rider-tools/realtime/?Stop=A41009#realTimeResultsContainer"
267,41010,"S Glebe Road, NB @ 6th Street S, FS",38.866626,-77.094768,"http://www.arlingtontransit.com/pages/rider-tools/realtime/?Stop=A41010#realTimeResultsContainer"
268,41216,"S Glebe Road, SB @ 6th Street S, NS",38.866471,-77.094862,"http://www.arlingtontransit.com/pages/rider-tools/realtime/?Stop=A41216#realTimeResultsContainer"
269,41012,"S Glebe Road, NB @ Old Glebe Road, NS",38.867620,-77.096310,"http://www.arlingtontransit.com/pages/rider-tools/realtime/?Stop=A41012#realTimeResultsContainer"
272,41013,"S Glebe Road, NB @ 1st Road S, NS",38.868802,-77.098429,"http://www.arlingtontransit.com/pages/rider-tools/realtime/?Stop=A41013#realTimeResultsContainer"
273,41215,"S Glebe Road, SB @ 2nd Street S, NS",38.868553,-77.098346,"http://www.arlingtontransit.com/pages/rider-tools/realtime/?Stop=A41215#realTimeResultsContainer"
283,41014,"S Glebe Road, NB @ Arlington Blvd (RT. 50), NS",38.870168,-77.099995,"http://www.arlingtontransit.com/pages/rider-tools/realtime/?Stop=A41014#realTimeResultsContainer"
284,41214,"S Glebe Road, SB @ Arlington Blvd Rt. 50, FS",38.869988,-77.100215,"http://www.arlingtontransit.com/pages/rider-tools/realtime/?Stop=A41214#realTimeResultsContainer"
285,41213,"N Glebe Road, SB @ 2nd Street N, FS",38.872050,-77.102958,"http://www.arlingtontransit.com/pages/rider-tools/realtime/?Stop=A41213#realTimeResultsContainer"
287,41016,"N Glebe Road, NB @ N Piedmont Street, NS",38.872723,-77.103375,"http://www.arlingtontransit.com/pages/rider-tools/realtime/?Stop=A41016#realTimeResultsContainer"
288,41017,"N Glebe Road, NB @ N Pershing Street, NS",38.873799,-77.104923,"http://www.arlingtontransit.com/pages/rider-tools/realtime/?Stop=A41017#realTimeResultsContainer"
289,41212,"N Glebe Road, SB @ N Pershing Drive, FS",38.873571,-77.104912,"http://www.arlingtontransit.com/pages/rider-tools/realtime/?Stop=A41212#realTimeResultsContainer"
290,41018,"N Glebe Road, NB @ 3rd Road N, NS",38.874686,-77.106132,"http://www.arlingtontransit.com/pages/rider-tools/realtime/?Stop=A41018#realTimeResultsContainer"
291,75109,"S Dinwiddie Street, NB @ 8th Rd S, NS",38.858687,-77.113716,"http://www.arlingtontransit.com/pages/rider-tools/realtime/?Stop=A75109#realTimeResultsContainer"
292,41233,"S Dinwiddie Street, SB @ 8th Road S, FS",38.858555,-77.113817,"http://www.arlingtontransit.com/pages/rider-tools/realtime/?Stop=A41233#realTimeResultsContainer"
293,75110,"7th Road S, WB @ Park Condos, FS",38.859907,-77.117265,"http://www.arlingtontransit.com/pages/rider-tools/realtime/?Stop=A75110#realTimeResultsContainer"
294,41232,"7th Road S, EB @ Park Condos, NS",38.859762,-77.117328,"http://www.arlingtontransit.com/pages/rider-tools/realtime/?Stop=A41232#realTimeResultsContainer"
295,75111,"7th Road S, WB @ S Florida Street, NS",38.858950,-77.118611,"http://www.arlingtontransit.com/pages/rider-tools/realtime/?Stop=A75111#realTimeResultsContainer"
296,41231,"7th Road S, EB @ S Florida Street, NS",38.858684,-77.118713,"http://www.arlingtontransit.com/pages/rider-tools/realtime/?Stop=A41231#realTimeResultsContainer"
297,41229,"S Greenbrier Street, NB @ 8th Road S, FS",38.857169,-77.119226,"http://www.arlingtontransit.com/pages/rider-tools/realtime/?Stop=A41229#realTimeResultsContainer"
299,75112,"7th Road S, WB @ S Greenbrier Street, FS",38.857858,-77.120200,"http://www.arlingtontransit.com/pages/rider-tools/realtime/?Stop=A75112#realTimeResultsContainer"
300,75015,"7th Road S, EB @ Carlin Springs Road, FS",38.857135,-77.125547,"http://www.arlingtontransit.com/pages/rider-tools/realtime/?Stop=A75015#realTimeResultsContainer"
301,75113,"7th Road S, WB @ Carlin Springs Road, NS",38.857285,-77.125584,"http://www.arlingtontransit.com/pages/rider-tools/realtime/?Stop=A75113#realTimeResultsContainer"
302,75114,"Carlin Springs Rd, NB @ Northern Doctors Ctr, FS",38.858817,-77.126746,"http://www.arlingtontransit.com/pages/rider-tools/realtime/?Stop=A75114#realTimeResultsContainer"
303,75014,"Carlin Springs Road, SB @ 6th Road S, FS",38.860135,-77.128049,"http://www.arlingtontransit.com/pages/rider-tools/realtime/?Stop=A75014#realTimeResultsContainer"
304,75115,"Carlin Spring Road, NB @ 6th Road S, NS",38.860410,-77.128019,"http://www.arlingtontransit.com/pages/rider-tools/realtime/?Stop=A75115#realTimeResultsContainer"
305,75116,"Carlin Springs Road, NB @ 5th Road S, NS",38.861018,-77.128748,"http://www.arlingtontransit.com/pages/rider-tools/realtime/?Stop=A75116#realTimeResultsContainer"
306,75117,"Carlin Springs Road, NB @ 3rd Street S, NS",38.863580,-77.128790,"http://www.arlingtontransit.com/pages/rider-tools/realtime/?Stop=A75117#realTimeResultsContainer"
307,75013,"Carlin Springs Road, SB @ 3rd Street S, NS",38.863800,-77.128957,"http://www.arlingtontransit.com/pages/rider-tools/realtime/?Stop=A75013#realTimeResultsContainer"
308,75118,"Carlin Springs Road, NB @ 1st Street S, NS",38.865151,-77.128501,"http://www.arlingtontransit.com/pages/rider-tools/realtime/?Stop=A75118#realTimeResultsContainer"
310,75119,"N Kensington Street, NB @ 4th Street S, FS",38.870877,-77.128185,"http://www.arlingtontransit.com/pages/rider-tools/realtime/?Stop=A75119#realTimeResultsContainer"
311,75011,"N Kensington Street, SB @ 4th Street N, NS",38.870804,-77.128321,"http://www.arlingtontransit.com/pages/rider-tools/realtime/?Stop=A75011#realTimeResultsContainer"
312,75120,"7th Street S, EB @ N Kensington Street, FS",38.873342,-77.129516,"http://www.arlingtontransit.com/pages/rider-tools/realtime/?Stop=A75120#realTimeResultsContainer"
313,75010,"7th Street N, WB @ N Kensington Street, NS",38.873461,-77.129612,"http://www.arlingtontransit.com/pages/rider-tools/realtime/?Stop=A75010#realTimeResultsContainer"
314,75121,"N Jefferson Street, NB @ 8th Street N, NS",38.875315,-77.127676,"http://www.arlingtontransit.com/pages/rider-tools/realtime/?Stop=A75121#realTimeResultsContainer"
315,75009,"N Jefferson Street, SB @ 8th Street N, NS",38.874961,-77.127663,"http://www.arlingtontransit.com/pages/rider-tools/realtime/?Stop=A75009#realTimeResultsContainer"
316,75122,"Wilson Blvd, EB @ N Jefferson Street, FS",38.876446,-77.127742,"http://www.arlingtontransit.com/pages/rider-tools/realtime/?Stop=A75122#realTimeResultsContainer"
317,75123,"Wilson Blvd, EB @ N Harrison Street, NS",38.876816,-77.126256,"http://www.arlingtontransit.com/pages/rider-tools/realtime/?Stop=A75123#realTimeResultsContainer"
318,75008,"Wilson Blvd, WB @ N Harrison Street, NS",38.876920,-77.126451,"http://www.arlingtontransit.com/pages/rider-tools/realtime/?Stop=A75008#realTimeResultsContainer"
319,75124,"Wilson Blvd, EB @ N Greenbrier Street, NS",38.877004,-77.125514,"http://www.arlingtontransit.com/pages/rider-tools/realtime/?Stop=A75124#realTimeResultsContainer"
320,75007,"Wilson Blvd, WB @ N Greenbrier Street, NS",38.877246,-77.125154,"http://www.arlingtontransit.com/pages/rider-tools/realtime/?Stop=A75007#realTimeResultsContainer"
321,75006,"Wilson Blvd, WB @ N Frederick Street, NS",38.877679,-77.123549,"http://www.arlingtontransit.com/pages/rider-tools/realtime/?Stop=A75006#realTimeResultsContainer"
322,75125,"Wilson Blvd, EB @ N Emerson Street, NS",38.877524,-77.123323,"http://www.arlingtontransit.com/pages/rider-tools/realtime/?Stop=A75125#realTimeResultsContainer"
323,75126,"Wilson Blvd, EB @ N George Mason Drive, NS",38.878032,-77.121278,"http://www.arlingtontransit.com/pages/rider-tools/realtime/?Stop=A75126#realTimeResultsContainer"
324,75005,"Wilson Blvd, WB @ N George Mason Drive, FS",38.878216,-77.121418,"http://www.arlingtontransit.com/pages/rider-tools/realtime/?Stop=A75005#realTimeResultsContainer"
325,75127,"Wilson Blvd, EB @ N Buchanan Streeet, FS",38.878573,-77.119228,"http://www.arlingtontransit.com/pages/rider-tools/realtime/?Stop=A75127#realTimeResultsContainer"
326,75004,"Wilson Blvd, WB @ N Abingdon Street, NS",38.879094,-77.117801,"http://www.arlingtontransit.com/pages/rider-tools/realtime/?Stop=A75004#realTimeResultsContainer"
327,75128,"Wilson Blvd, EB @ N Abingdon Street, NS",38.878972,-77.117658,"http://www.arlingtontransit.com/pages/rider-tools/realtime/?Stop=A75128#realTimeResultsContainer"
330,75130,"Wilson Blvd, EB @ N Taylor Street, NS",38.879932,-77.112711,"http://www.arlingtontransit.com/pages/rider-tools/realtime/?Stop=A75130#realTimeResultsContainer"
334,41209,"Randolph St, SB @ Ballston Mall Time Point, MB",38.878580,-77.109369,"http://www.arlingtontransit.com/pages/rider-tools/realtime/?Stop=A41209#realTimeResultsContainer"
335,41021,"Randolph St, NB @ Wilson Blvd, NS",38.879633,-77.108960,"http://www.arlingtontransit.com/pages/rider-tools/realtime/?Stop=A41021#realTimeResultsContainer"
337,41020,"N Glebe Road, NB @ N Quincy Street, FS",38.876432,-77.108506,"http://www.arlingtontransit.com/pages/rider-tools/realtime/?Stop=A41020#realTimeResultsContainer"
338,41210,"N Glebe Road, SB @ N Henderson Road, NS",38.876137,-77.108690,"http://www.arlingtontransit.com/pages/rider-tools/realtime/?Stop=A41210#realTimeResultsContainer"
339,41211,"N Glebe Road, SB @ 4th Street N, NS",38.875519,-77.107651,"http://www.arlingtontransit.com/pages/rider-tools/realtime/?Stop=A41211#realTimeResultsContainer"
340,41019,"N Glebe Road, NB @ 4th Street N, NS",38.875493,-77.107263,"http://www.arlingtontransit.com/pages/rider-tools/realtime/?Stop=A41019#realTimeResultsContainer"
341,67002,"Wilson Blvd, EB @ N Pollard Street, NS",38.879896,-77.106453,"http://www.arlingtontransit.com/pages/rider-tools/realtime/?Stop=A67002#realTimeResultsContainer"
342,41208,"Wilson Blvd, WB @ N Pollard Street, NS",38.880169,-77.106249,"http://www.arlingtontransit.com/pages/rider-tools/realtime/?Stop=A41208#realTimeResultsContainer"
343,41023,"Wilson Blvd, EB @ N Oakland St, FS",38.881282,-77.103827,"http://www.arlingtontransit.com/pages/rider-tools/realtime/?Stop=A41023#realTimeResultsContainer"
344,41207,"Wilson Blvd, WB @ N Oakland Street, FS",38.881163,-77.104357,"http://www.arlingtontransit.com/pages/rider-tools/realtime/?Stop=A41207#realTimeResultsContainer"
345,41024,"Wilson Blvd, EB @ N Kenmore Street, NS",38.882907,-77.100442,"http://www.arlingtontransit.com/pages/rider-tools/realtime/?Stop=A41024#realTimeResultsContainer"
346,41206,"Wilson Blvd, WB @ N Kansas Street, NS",38.883065,-77.100526,"http://www.arlingtontransit.com/pages/rider-tools/realtime/?Stop=A41206#realTimeResultsContainer"
347,53205,"N Sycamore Street, NB @ 27th Street N, NS",38.896734,-77.157140,"http://www.arlingtontransit.com/pages/rider-tools/realtime/?Stop=A53205#realTimeResultsContainer"
348,53040,"N Sycamore Street, SB @ Little Falls Road, FS",38.897190,-77.157317,"http://www.arlingtontransit.com/pages/rider-tools/realtime/?Stop=A53040#realTimeResultsContainer"
349,53206,"N Sycamore Street, NB @ 29th Street N, MB",38.898830,-77.156788,"http://www.arlingtontransit.com/pages/rider-tools/realtime/?Stop=A53206#realTimeResultsContainer"
350,53039,"N Sycamore Street, SB @ 29th Street N, NS",38.899149,-77.156961,"http://www.arlingtontransit.com/pages/rider-tools/realtime/?Stop=A53039#realTimeResultsContainer"
351,53208,"Williamsburg Blvd, NB @ N Ohio Street, NS",38.903415,-77.153136,"http://www.arlingtontransit.com/pages/rider-tools/realtime/?Stop=A53208#realTimeResultsContainer"
352,53037,"Williamsburg Blvd, SB @ N Ohio Street, NS",38.904005,-77.152770,"http://www.arlingtontransit.com/pages/rider-tools/realtime/?Stop=A53037#realTimeResultsContainer"
353,53209,"Williamsburg Blvd, NB @ N John Marshall , FS",38.905425,-77.150755,"http://www.arlingtontransit.com/pages/rider-tools/realtime/?Stop=A53209#realTimeResultsContainer"
354,53036,"Williamsburg Blvd, SB @ N John Marshall, NS",38.905469,-77.151034,"http://www.arlingtontransit.com/pages/rider-tools/realtime/?Stop=A53036#realTimeResultsContainer"
355,53210,"Williamsburg Blvd, NB @ N Harrison Street, NS",38.907105,-77.146044,"http://www.arlingtontransit.com/pages/rider-tools/realtime/?Stop=A53210#realTimeResultsContainer"
356,53035,"Williamsburg Blvd, SB @ N Harrison Street, NS",38.907412,-77.145716,"http://www.arlingtontransit.com/pages/rider-tools/realtime/?Stop=A53035#realTimeResultsContainer"
357,53211,"Williamsburg Blvd, NB @ N Emerson Street, NS",38.907790,-77.144065,"http://www.arlingtontransit.com/pages/rider-tools/realtime/?Stop=A53211#realTimeResultsContainer"
358,53034,"Williamsburg Blvd, SB @ N Emerson Street, NS",38.908144,-77.143787,"http://www.arlingtontransit.com/pages/rider-tools/realtime/?Stop=A53034#realTimeResultsContainer"
359,53033,"Williamsburg Blvd, SB @ George Mason Drive, NS",38.909110,-77.140489,"http://www.arlingtontransit.com/pages/rider-tools/realtime/?Stop=A53033#realTimeResultsContainer"
360,53212,"Williamsburg Blvd, NB @ N Columbus Street, NS",38.909137,-77.139940,"http://www.arlingtontransit.com/pages/rider-tools/realtime/?Stop=A53212#realTimeResultsContainer"
361,53032,"Williamsburg Blvd, SB @ Old Dominion Drive, FS",38.909913,-77.139418,"http://www.arlingtontransit.com/pages/rider-tools/realtime/?Stop=A53032#realTimeResultsContainer"
362,53213,"Williamsburg Blvd, NB @ Old Dominion Drive, FS",38.910499,-77.138931,"http://www.arlingtontransit.com/pages/rider-tools/realtime/?Stop=A53213#realTimeResultsContainer"
363,53214,"Williamsburg Blvd, NB @ 34th Road N, NS",38.912078,-77.138296,"http://www.arlingtontransit.com/pages/rider-tools/realtime/?Stop=A53214#realTimeResultsContainer"
364,53031,"Williamsburg Blvd, SB @ 34th Street N, NS",38.911739,-77.138694,"http://www.arlingtontransit.com/pages/rider-tools/realtime/?Stop=A53031#realTimeResultsContainer"
365,53215,"Williamsburg Blvd, NB @ 36th Street N, FS",38.915377,-77.136994,"http://www.arlingtontransit.com/pages/rider-tools/realtime/?Stop=A53215#realTimeResultsContainer"
366,53030,"Williamsburg Blvd, SB @ 36th Street N, NS",38.915347,-77.137255,"http://www.arlingtontransit.com/pages/rider-tools/realtime/?Stop=A53030#realTimeResultsContainer"
367,53029,"N Glebe Road, SB @ N Albemarle Street, FS",38.917081,-77.136377,"http://www.arlingtontransit.com/pages/rider-tools/realtime/?Stop=A53029#realTimeResultsContainer"
368,53216,"N Glebe Road, NB @ N Abingdon Street, FS",38.918600,-77.134025,"http://www.arlingtontransit.com/pages/rider-tools/realtime/?Stop=A53216#realTimeResultsContainer"
369,53027,"N Glebe Road, SB @ N Woodstock Street, NS",38.918781,-77.134102,"http://www.arlingtontransit.com/pages/rider-tools/realtime/?Stop=A53027#realTimeResultsContainer"
370,53217,"N Glebe Road, NB @ N Woodrow Street, FS",38.919204,-77.132765,"http://www.arlingtontransit.com/pages/rider-tools/realtime/?Stop=A53217#realTimeResultsContainer"
371,53028,"N Glebe Road, SB @ N Wakefield Street, NS",38.919203,-77.133199,"http://www.arlingtontransit.com/pages/rider-tools/realtime/?Stop=A53028#realTimeResultsContainer"
372,53219,"N Glebe Road, NB @ N Vernon Street, NS",38.919704,-77.131757,"http://www.arlingtontransit.com/pages/rider-tools/realtime/?Stop=A53219#realTimeResultsContainer"
373,53220,"N Glebe Road, NB @ N Upland Street, NS",38.920762,-77.130231,"http://www.arlingtontransit.com/pages/rider-tools/realtime/?Stop=A53220#realTimeResultsContainer"
374,53026,"N Glebe Road, SB @ N Upland Street, FS",38.921225,-77.130078,"http://www.arlingtontransit.com/pages/rider-tools/realtime/?Stop=A53026#realTimeResultsContainer"
375,53224,"N Glebe Road, NB @ N Tazwell Street, FS",38.923035,-77.127812,"http://www.arlingtontransit.com/pages/rider-tools/realtime/?Stop=A53224#realTimeResultsContainer"
376,53025,"N Glebe Road, SB @ N Tazwell Street, FS",38.922830,-77.128412,"http://www.arlingtontransit.com/pages/rider-tools/realtime/?Stop=A53025#realTimeResultsContainer"
377,53023,"N Old Glebe Road, WB @ N Dittmar Street, NS",38.921544,-77.129029,"http://www.arlingtontransit.com/pages/rider-tools/realtime/?Stop=A53023#realTimeResultsContainer"
379,53222,"N Old Glebe Road, EB @ N Tazwell Street, FS",38.921689,-77.126748,"http://www.arlingtontransit.com/pages/rider-tools/realtime/?Stop=A53222#realTimeResultsContainer"
380,53223,"Madison Ctr, N Old Glebe Rd, EB @N Stafford St, FS",38.923479,-77.125163,"http://www.arlingtontransit.com/pages/rider-tools/realtime/?Stop=A53223#realTimeResultsContainer"
381,53225,"N Glebe Road, NB @ N River St, NS",38.924416,-77.126407,"http://www.arlingtontransit.com/pages/rider-tools/realtime/?Stop=A53225#realTimeResultsContainer"
382,53022,"Madison Ctr, N Old Glebe Rd, WB @N Stafford St, NS",38.923680,-77.125174,"http://www.arlingtontransit.com/pages/rider-tools/realtime/?Stop=A53022#realTimeResultsContainer"
383,53021,"Military Road, NB @ N Old Glebe Road, NS",38.925182,-77.122446,"http://www.arlingtontransit.com/pages/rider-tools/realtime/?Stop=A53021#realTimeResultsContainer"
384,53226,"Military Road, SB @ N Old Glebe Road, FS",38.925086,-77.122595,"http://www.arlingtontransit.com/pages/rider-tools/realtime/?Stop=A53226#realTimeResultsContainer"
385,53020,"Military Road, NB @ 38th Street N, FS",38.923139,-77.121447,"http://www.arlingtontransit.com/pages/rider-tools/realtime/?Stop=A53020#realTimeResultsContainer"
386,53228,"Military Road, SB @ 38th Street N, NS",38.922915,-77.121512,"http://www.arlingtontransit.com/pages/rider-tools/realtime/?Stop=A53228#realTimeResultsContainer"
387,53019,"Military Road, NB @ 37th Street N, NS",38.920782,-77.120507,"http://www.arlingtontransit.com/pages/rider-tools/realtime/?Stop=A53019#realTimeResultsContainer"
388,53018,"Military Road, NB @ 36th Road N, NS",38.919340,-77.119693,"http://www.arlingtontransit.com/pages/rider-tools/realtime/?Stop=A53018#realTimeResultsContainer"
389,53231,"Military Road, SB @ 36th Road N, FS",38.919550,-77.119993,"http://www.arlingtontransit.com/pages/rider-tools/realtime/?Stop=A53231#realTimeResultsContainer"
390,53232,"Military Road, SB @ 35th Street N, NS",38.916186,-77.119123,"http://www.arlingtontransit.com/pages/rider-tools/realtime/?Stop=A53232#realTimeResultsContainer"
391,53017,"Military Road, NB @ N Quincy Street, NS",38.915703,-77.118900,"http://www.arlingtontransit.com/pages/rider-tools/realtime/?Stop=A53017#realTimeResultsContainer"
392,53016,"Military Road, NB @ 31st Street N, NS",38.913041,-77.115238,"http://www.arlingtontransit.com/pages/rider-tools/realtime/?Stop=A53016#realTimeResultsContainer"
393,53233,"Military Road, SB @ 31st Street N, NS",38.913063,-77.115617,"http://www.arlingtontransit.com/pages/rider-tools/realtime/?Stop=A53233#realTimeResultsContainer"
394,53234,"Military Road, SB @ 30th Street N, FS",38.911204,-77.113525,"http://www.arlingtontransit.com/pages/rider-tools/realtime/?Stop=A53234#realTimeResultsContainer"
395,53015,"Military Road, NB @ Beechwood Circle, NS",38.910806,-77.113111,"http://www.arlingtontransit.com/pages/rider-tools/realtime/?Stop=A53015#realTimeResultsContainer"
396,53014,"Military Road, NB @ across from Church, MB",38.908606,-77.111117,"http://www.arlingtontransit.com/pages/rider-tools/realtime/?Stop=A53014#realTimeResultsContainer"
397,53235,"Military Road, SB @ front of Church, MB",38.908593,-77.111433,"http://www.arlingtontransit.com/pages/rider-tools/realtime/?Stop=A53235#realTimeResultsContainer"
398,53013,"Military Road, NB @ N Marcey Road, NS",38.907457,-77.110472,"http://www.arlingtontransit.com/pages/rider-tools/realtime/?Stop=A53013#realTimeResultsContainer"
399,53236,"Military Road, SB @ N Marcey Road, NS",38.907723,-77.110813,"http://www.arlingtontransit.com/pages/rider-tools/realtime/?Stop=A53236#realTimeResultsContainer"
400,53237,"Military Road, SB @ 26th Road N, NS",38.906576,-77.110309,"http://www.arlingtontransit.com/pages/rider-tools/realtime/?Stop=A53237#realTimeResultsContainer"
401,53012,"Military Road, NB @ 26th Street N, NS",38.905884,-77.109595,"http://www.arlingtontransit.com/pages/rider-tools/realtime/?Stop=A53012#realTimeResultsContainer"
402,53238,"Military Road, SB @ 25th Street N, NS",38.903530,-77.108295,"http://www.arlingtontransit.com/pages/rider-tools/realtime/?Stop=A53238#realTimeResultsContainer"
403,62007,"N Lorcom Lane, EB @ Military Road, FS",38.902108,-77.108308,"http://www.arlingtontransit.com/pages/rider-tools/realtime/?Stop=A62007#realTimeResultsContainer"
404,62210,"N Lorcom Lane, WB @ Military Road, FS",38.902435,-77.109072,"http://www.arlingtontransit.com/pages/rider-tools/realtime/?Stop=A62210#realTimeResultsContainer"
405,53239,"Military Road, SB @ Lorcom Lane, FS",38.902054,-77.109212,"http://www.arlingtontransit.com/pages/rider-tools/realtime/?Stop=A53239#realTimeResultsContainer"
406,53010,"Military Road, NB @ N Lorcom Lane, NS",38.902093,-77.108911,"http://www.arlingtontransit.com/pages/rider-tools/realtime/?Stop=A53010#realTimeResultsContainer"
408,62006,"N Lorcom Lane, EB @ N Vacation Lane, NS",38.901669,-77.113011,"http://www.arlingtontransit.com/pages/rider-tools/realtime/?Stop=A62006#realTimeResultsContainer"
409,62211,"N Lorcom Lane, WB @ N Vacation Lane, FS",38.901704,-77.113210,"http://www.arlingtontransit.com/pages/rider-tools/realtime/?Stop=A62211#realTimeResultsContainer"
410,62212,"N Lorcom Lane, SB @ N Trenton Street, MB",38.900130,-77.115427,"http://www.arlingtontransit.com/pages/rider-tools/realtime/?Stop=A62212#realTimeResultsContainer"
411,62005,"N Lorcom Lane, NB @ N Trenton Street, NS",38.899846,-77.115500,"http://www.arlingtontransit.com/pages/rider-tools/realtime/?Stop=A62005#realTimeResultsContainer"
412,62004,"Lee Highway, WB @ Lorcom Lane, NS",38.898489,-77.117304,"http://www.arlingtontransit.com/pages/rider-tools/realtime/?Stop=A62004#realTimeResultsContainer"
413,62213,"Lee Highway, EB @ N Vermont Street, MB",38.898057,-77.116484,"http://www.arlingtontransit.com/pages/rider-tools/realtime/?Stop=A62213#realTimeResultsContainer"
414,62015,"Lee Highway, WB @ N Thomas Street, NS",38.897586,-77.115134,"http://www.arlingtontransit.com/pages/rider-tools/realtime/?Stop=A62015#realTimeResultsContainer"
415,62214,"Lee Highway, EB @ N Thomas Street, FS",38.897440,-77.115254,"http://www.arlingtontransit.com/pages/rider-tools/realtime/?Stop=A62214#realTimeResultsContainer"
416,62003,"Lee Highway, WB @ N Utah St, FS",38.897227,-77.114189,"http://www.arlingtontransit.com/pages/rider-tools/realtime/?Stop=A62003#realTimeResultsContainer"
417,53241,"Military Road, SB @ Old Dominion Drive, NS",38.897631,-77.108882,"http://www.arlingtontransit.com/pages/rider-tools/realtime/?Stop=A53241#realTimeResultsContainer"
418,53008,"Military Road, NB @ Old Dominion Drive, FS",38.897530,-77.108656,"http://www.arlingtontransit.com/pages/rider-tools/realtime/?Stop=A53008#realTimeResultsContainer"
419,53007,"N Quincy Street, NB @ 21st Street N, FS",38.896400,-77.108139,"http://www.arlingtontransit.com/pages/rider-tools/realtime/?Stop=A53007#realTimeResultsContainer"
420,53242,"N Quincy Street, SB @ 21st Street N, NS",38.896232,-77.108276,"http://www.arlingtontransit.com/pages/rider-tools/realtime/?Stop=A53242#realTimeResultsContainer"
421,53009,"Military Road, NB @ N Vacation Lane, FS",38.900273,-77.109124,"http://www.arlingtontransit.com/pages/rider-tools/realtime/?Stop=A53009#realTimeResultsContainer"
422,53240,"Military Road, SB @ N Vacation Lane, NS",38.900231,-77.109309,"http://www.arlingtontransit.com/pages/rider-tools/realtime/?Stop=A53240#realTimeResultsContainer"
423,53006,"N Quincy Street, NB @ 20th Street N, FS",38.895009,-77.107591,"http://www.arlingtontransit.com/pages/rider-tools/realtime/?Stop=A53006#realTimeResultsContainer"
424,53243,"N Quincy Street, SB @ 20th Street N, NS",38.894793,-77.107775,"http://www.arlingtontransit.com/pages/rider-tools/realtime/?Stop=A53243#realTimeResultsContainer"
425,53244,"N Quincy Street, SB @ 18th Road N, NS",38.893542,-77.107763,"http://www.arlingtontransit.com/pages/rider-tools/realtime/?Stop=A53244#realTimeResultsContainer"
426,53005,"N Quincy Street, NB @ 18th Street N, NS",38.892962,-77.107579,"http://www.arlingtontransit.com/pages/rider-tools/realtime/?Stop=A53005#realTimeResultsContainer"
427,53004,"N Quincy Street, NB @ 17th Street N, NS",38.890826,-77.108039,"http://www.arlingtontransit.com/pages/rider-tools/realtime/?Stop=A53004#realTimeResultsContainer"
428,53245,"N Quincy Street, SB @ 17th Street N, FS",38.890935,-77.108208,"http://www.arlingtontransit.com/pages/rider-tools/realtime/?Stop=A53245#realTimeResultsContainer"
429,53003,"N Quincy Street, NB @ 14th Street N, FS",38.889012,-77.108174,"http://www.arlingtontransit.com/pages/rider-tools/realtime/?Stop=A53003#realTimeResultsContainer"
430,53246,"N Quincy Street, SB @ 14th Street N, NS",38.889083,-77.108417,"http://www.arlingtontransit.com/pages/rider-tools/realtime/?Stop=A53246#realTimeResultsContainer"
431,53002,"N Quincy Street, NB @ 13th Street N, NS",38.887339,-77.108151,"http://www.arlingtontransit.com/pages/rider-tools/realtime/?Stop=A53002#realTimeResultsContainer"
432,53247,"N Quincy Street, SB @ 13th Street N, NS",38.887467,-77.108326,"http://www.arlingtontransit.com/pages/rider-tools/realtime/?Stop=A53247#realTimeResultsContainer"
440,41025,"Clarendon Blvd, EB @ N Highland Street, NS",38.886778,-77.095136,"http://www.arlingtontransit.com/pages/rider-tools/realtime/?Stop=A41025#realTimeResultsContainer"
444,41204,"Wilson Blvd, WB @ N Fillmore Street, NS",38.888855,-77.093019,"http://www.arlingtontransit.com/pages/rider-tools/realtime/?Stop=A41204#realTimeResultsContainer"
446,41203,"Wilson Blvd, WB @ N Danville Street, NS",38.889789,-77.090456,"http://www.arlingtontransit.com/pages/rider-tools/realtime/?Stop=A41203#realTimeResultsContainer"
447,41202,"Wilson Blvd, WB @ N Barton Street, NS",38.890617,-77.088307,"http://www.arlingtontransit.com/pages/rider-tools/realtime/?Stop=A41202#realTimeResultsContainer"
448,41027,"Clarendon Blvd, EB @ N Danville Street, NS",38.888487,-77.091119,"http://www.arlingtontransit.com/pages/rider-tools/realtime/?Stop=A41027#realTimeResultsContainer"
449,41028,"Clarendon Blvd, EB @ N Barton Street, NS",38.889370,-77.088824,"http://www.arlingtontransit.com/pages/rider-tools/realtime/?Stop=A41028#realTimeResultsContainer"
450,41029,"Clarendon Blvd, EB @ N Wayne Street, NS",38.890345,-77.086492,"http://www.arlingtontransit.com/pages/rider-tools/realtime/?Stop=A41029#realTimeResultsContainer"
451,41201,"Wilson Blvd, WB @ N Veitch Street, NS",38.891465,-77.085513,"http://www.arlingtontransit.com/pages/rider-tools/realtime/?Stop=A41201#realTimeResultsContainer"
452,61012,"Wilson Blvd, WB @ N Courthouse Road, NS",38.891872,-77.083805,"http://www.arlingtontransit.com/pages/rider-tools/realtime/?Stop=A61012#realTimeResultsContainer"
453,61011,"Wilson Blvd, WB @ N Troy Street, FS",38.892469,-77.082228,"http://www.arlingtontransit.com/pages/rider-tools/realtime/?Stop=A61011#realTimeResultsContainer"
454,61107,"Clarendon Blvd, EB @ N Uhle Street, NS",38.891310,-77.085020,"http://www.arlingtontransit.com/pages/rider-tools/realtime/?Stop=A61107#realTimeResultsContainer"
455,61108,"Clarendon Blvd, SB @ N Courthouse Road, FS",38.891465,-77.083601,"http://www.arlingtontransit.com/pages/rider-tools/realtime/?Stop=A61108#realTimeResultsContainer"
457,41031,"Court House Metro, Arlington Co Offices (Flags)",38.890665,-77.084930,"http://www.arlingtontransit.com/pages/rider-tools/realtime/?Stop=A41031#realTimeResultsContainer"
458,61013,"N Veitch Street, NB @ Key Blvd, FS",38.893581,-77.086052,"http://www.arlingtontransit.com/pages/rider-tools/realtime/?Stop=A61013#realTimeResultsContainer"
459,61106,"N Veitch Street, SB @ Key Blvd, NS",38.893455,-77.086232,"http://www.arlingtontransit.com/pages/rider-tools/realtime/?Stop=A61106#realTimeResultsContainer"
460,61010,"Wilson Blvd, WB @ N Rhodes Street, FS",38.893155,-77.080659,"http://www.arlingtontransit.com/pages/rider-tools/realtime/?Stop=A61010#realTimeResultsContainer"
461,61109,"N Rhodes Street, SB @ 16st Street N, FS",38.891692,-77.079325,"http://www.arlingtontransit.com/pages/rider-tools/realtime/?Stop=A61109#realTimeResultsContainer"
462,61009,"N Rhodes Street, NB @ 16th Street N, NS",38.891716,-77.079128,"http://www.arlingtontransit.com/pages/rider-tools/realtime/?Stop=A61009#realTimeResultsContainer"
463,61008,"N Rhodes Street, NB @ 14th Street N, FS",38.890305,-77.078971,"http://www.arlingtontransit.com/pages/rider-tools/realtime/?Stop=A61008#realTimeResultsContainer"
464,61110,"N Rhodes Street, SB @ N 14th Street, NS",38.890236,-77.079101,"http://www.arlingtontransit.com/pages/rider-tools/realtime/?Stop=A61110#realTimeResultsContainer"
465,61007,"N Queen Street, NB @ Rt 50 access Road, NS",38.889495,-77.077454,"http://www.arlingtontransit.com/pages/rider-tools/realtime/?Stop=A61007#realTimeResultsContainer"
466,61111,"N Queen Street, SB @ RT. 50 access road, FS",38.889353,-77.077513,"http://www.arlingtontransit.com/pages/rider-tools/realtime/?Stop=A61111#realTimeResultsContainer"
467,61006,"N Queen Street, NB @ 12th Street N, FS",38.887696,-77.076656,"http://www.arlingtontransit.com/pages/rider-tools/realtime/?Stop=A61006#realTimeResultsContainer"
468,61112,"N Queen Street, SB @ 12th Street N, NS",38.887686,-77.076796,"http://www.arlingtontransit.com/pages/rider-tools/realtime/?Stop=A61112#realTimeResultsContainer"
469,61113,"12th Street N, EB @ Fort Myer Drive, MB",38.888100,-77.074600,"http://www.arlingtontransit.com/pages/rider-tools/realtime/?Stop=A61113#realTimeResultsContainer"
470,61005,"12th Street N, WB @ Fort Myer Drive, MB",38.888081,-77.075349,"http://www.arlingtontransit.com/pages/rider-tools/realtime/?Stop=A61005#realTimeResultsContainer"
471,61004,"N Oak Street, WB @ 14th Street N, MB",38.889322,-77.073442,"http://www.arlingtontransit.com/pages/rider-tools/realtime/?Stop=A61004#realTimeResultsContainer"
472,61114,"N Oak Street, EB @ 14th Street N, MB",38.889514,-77.073334,"http://www.arlingtontransit.com/pages/rider-tools/realtime/?Stop=A61114#realTimeResultsContainer"
473,61003,"14th Street N, SB @ N Meade Street, FS",38.890247,-77.071642,"http://www.arlingtontransit.com/pages/rider-tools/realtime/?Stop=A61003#realTimeResultsContainer"
474,61115,"14th Street N, NB @ N Meade Street, NS",38.890157,-77.071671,"http://www.arlingtontransit.com/pages/rider-tools/realtime/?Stop=A61115#realTimeResultsContainer"
478,61018,"Key Blvd, EB @ N Ode Street, NS",38.896143,-77.076071,"http://www.arlingtontransit.com/pages/rider-tools/realtime/?Stop=A61018#realTimeResultsContainer"
479,61101,"Key Blvd, WB @ N Ode Street, FS",38.896282,-77.076194,"http://www.arlingtontransit.com/pages/rider-tools/realtime/?Stop=A61101#realTimeResultsContainer"
480,61017,"N Scott Street, EB @ N Quinn Street, NS",38.895989,-77.078677,"http://www.arlingtontransit.com/pages/rider-tools/realtime/?Stop=A61017#realTimeResultsContainer"
481,61102,"N Scott Street, WB @ N Quinn Street, FS",38.896129,-77.078807,"http://www.arlingtontransit.com/pages/rider-tools/realtime/?Stop=A61102#realTimeResultsContainer"
482,61103,"21st Street N, WB @ N Scott Street, FS",38.898238,-77.081802,"http://www.arlingtontransit.com/pages/rider-tools/realtime/?Stop=A61103#realTimeResultsContainer"
483,61016,"21st Street N, EB @ N Scott Street, MB",38.898200,-77.081600,"http://www.arlingtontransit.com/pages/rider-tools/realtime/?Stop=A61016#realTimeResultsContainer"
484,61104,"21st Street N, WB @ N Troy Street, NS",38.898077,-77.083686,"http://www.arlingtontransit.com/pages/rider-tools/realtime/?Stop=A61104#realTimeResultsContainer"
485,61015,"21st Street N, EB @ N Troy Street, NS",38.897941,-77.083989,"http://www.arlingtontransit.com/pages/rider-tools/realtime/?Stop=A61015#realTimeResultsContainer"
486,61105,"N Veitch Street, SB @ 20th Street N, NS",38.896902,-77.086453,"http://www.arlingtontransit.com/pages/rider-tools/realtime/?Stop=A61105#realTimeResultsContainer"
487,61014,"N Veitch Street, NB @ 20th Street N, FS",38.896840,-77.086337,"http://www.arlingtontransit.com/pages/rider-tools/realtime/?Stop=A61014#realTimeResultsContainer"
494,62206,"Spout Run, NB @ Lee Highway, FS",38.896283,-77.095558,"http://www.arlingtontransit.com/pages/rider-tools/realtime/?Stop=A62206#realTimeResultsContainer"
495,62011,"Spout Run, SB @ Lee Highway, NS",38.896857,-77.095297,"http://www.arlingtontransit.com/pages/rider-tools/realtime/?Stop=A62011#realTimeResultsContainer"
496,62207,"N Lorcom Lane, WB @ N Edgewood Street, FS",38.899242,-77.096328,"http://www.arlingtontransit.com/pages/rider-tools/realtime/?Stop=A62207#realTimeResultsContainer"
497,62010,"N Lorcom Lane, EB @ N Edgewood Street, NS",38.899096,-77.096197,"http://www.arlingtontransit.com/pages/rider-tools/realtime/?Stop=A62010#realTimeResultsContainer"
498,62208,"N Lorcom Lane, WB @ N Fillmore Street, FS",38.899838,-77.098602,"http://www.arlingtontransit.com/pages/rider-tools/realtime/?Stop=A62208#realTimeResultsContainer"
499,62009,"N Lorcom Lane, EB @ N Jackson Street, NS",38.899860,-77.099470,"http://www.arlingtontransit.com/pages/rider-tools/realtime/?Stop=A62009#realTimeResultsContainer"
500,62209,"N Lorcom Lane, WB @ Nelly Custis, FS",38.900759,-77.102739,"http://www.arlingtontransit.com/pages/rider-tools/realtime/?Stop=A62209#realTimeResultsContainer"
501,62008,"N Lorcom Lane, EB @ N Monroe Street, NS",38.900551,-77.102590,"http://www.arlingtontransit.com/pages/rider-tools/realtime/?Stop=A62008#realTimeResultsContainer"
502,53041,"N Sycamore Street, SB @ 26th Street N, NS",38.894731,-77.157675,"http://www.arlingtontransit.com/pages/rider-tools/realtime/?Stop=A53041#realTimeResultsContainer"
503,53204,"N Sycamore Street, NB @ 26th Street N, NS",38.894382,-77.157483,"http://www.arlingtontransit.com/pages/rider-tools/realtime/?Stop=A53204#realTimeResultsContainer"
504,53248,"N Quincy Street, SB @ Washington Blvd, FS",38.885822,-77.108288,"http://www.arlingtontransit.com/pages/rider-tools/realtime/?Stop=A53248#realTimeResultsContainer"
505,53001,"N Quincy Street, NB @ Washington Blvd, NS",38.885863,-77.108067,"http://www.arlingtontransit.com/pages/rider-tools/realtime/?Stop=A53001#realTimeResultsContainer"
513,42001,"Ballston Metro F, Fairfax Dr, EB @ N Stafford, NS",38.882088,-77.111083,"http://www.arlingtontransit.com/pages/rider-tools/realtime/?Stop=A42001#realTimeResultsContainer"
517,75001,"Ballston Metro, N Stafford St, SB @ Fairfax Dr, NS",38.881809,-77.110541,"http://www.arlingtontransit.com/pages/rider-tools/realtime/?Stop=A75001#realTimeResultsContainer"
521,53024,"N Glebe Road, SB @ N River Street, NS",38.924893,-77.126314,"http://www.arlingtontransit.com/pages/rider-tools/realtime/?Stop=A53024#realTimeResultsContainer"
530,42026,"Pentagon Metro @ Bay U4",38.868527,-77.054528,"http://www.arlingtontransit.com/pages/rider-tools/realtime/?Stop=A42026#realTimeResultsContainer"
531,42214,"S Courthouse Road, NB @ 2nd Street S, NS",38.871430,-77.081669,"http://www.arlingtontransit.com/pages/rider-tools/realtime/?Stop=A42214#realTimeResultsContainer"
533,42208,"Columbia Pike, WB @ S Orme Street, NS",38.866569,-77.071720,"http://www.arlingtontransit.com/pages/rider-tools/realtime/?Stop=A42208#realTimeResultsContainer"
534,42021,"Columbia Pike, EB @ S Orme Street, FS",38.866473,-77.071416,"http://www.arlingtontransit.com/pages/rider-tools/realtime/?Stop=A42021#realTimeResultsContainer"
543,82101,"24th Road S, WB @ S Glebe Road , FS",38.848179,-77.081113,"http://www.arlingtontransit.com/pages/rider-tools/realtime/?Stop=A82101#realTimeResultsContainer"
545,75101,"Wakefield HS, S Dinwiddie, NB @ S Chesterfield, FS",38.845871,-77.109285,"http://www.arlingtontransit.com/pages/rider-tools/realtime/?Stop=A75101#realTimeResultsContainer"
553,74015,"Walter Reed Drive, NB @ 19th Street S, NS",38.853093,-77.089516,"http://www.arlingtontransit.com/pages/rider-tools/realtime/?Stop=A74015#realTimeResultsContainer"
554,74024,"S Monroe Street, NB @ 16th Street S, NS",38.855469,-77.091477,"http://www.arlingtontransit.com/pages/rider-tools/realtime/?Stop=A74024#realTimeResultsContainer"
558,42009,"Washington Blvd, SB @ 9th Street N, NS",38.883035,-77.092030,"http://www.arlingtontransit.com/pages/rider-tools/realtime/?Stop=A42009#realTimeResultsContainer"
559,42010,"Washington Blvd, SB @ 7th Street N, NS",38.881044,-77.090774,"http://www.arlingtontransit.com/pages/rider-tools/realtime/?Stop=A42010#realTimeResultsContainer"
560,42011,"Washington Blvd, SB @ 3rd Street N, NS",38.878902,-77.089025,"http://www.arlingtontransit.com/pages/rider-tools/realtime/?Stop=A42011#realTimeResultsContainer"
561,42016,"S Courthouse Road, SB @ 6th Street S, NS",38.869096,-77.081368,"http://www.arlingtontransit.com/pages/rider-tools/realtime/?Stop=A42016#realTimeResultsContainer"
562,42017,"S Courthouse Road, SB @ 8th Street S, NS",38.866838,-77.080983,"http://www.arlingtontransit.com/pages/rider-tools/realtime/?Stop=A42017#realTimeResultsContainer"
563,42018,"S Courthouse Road, SB @ Columbia Pike, NS",38.864816,-77.080550,"http://www.arlingtontransit.com/pages/rider-tools/realtime/?Stop=A42018#realTimeResultsContainer"
564,42019,"Columbia Pike, EB @ S Scott Street, NS",38.864830,-77.077835,"http://www.arlingtontransit.com/pages/rider-tools/realtime/?Stop=A42019#realTimeResultsContainer"
565,42025,"Army Navy Drive, NB @ S Hayes Street, NS",38.865328,-77.058972,"http://www.arlingtontransit.com/pages/rider-tools/realtime/?Stop=A42025#realTimeResultsContainer"
566,42203,"Army Navy Drive, WB @ S Fern Street, NS",38.865241,-77.056318,"http://www.arlingtontransit.com/pages/rider-tools/realtime/?Stop=A42203#realTimeResultsContainer"
567,42210,"Columbia Pike, WB @ S Scott Street, FS",38.865088,-77.077526,"http://www.arlingtontransit.com/pages/rider-tools/realtime/?Stop=A42210#realTimeResultsContainer"
568,42211,"S Courthouse Road, NB @ Columbia Pike, FS",38.864980,-77.080410,"http://www.arlingtontransit.com/pages/rider-tools/realtime/?Stop=A42211#realTimeResultsContainer"
569,42212,"S Courthouse Road, NB @ 8th Street S, FS",38.866991,-77.080813,"http://www.arlingtontransit.com/pages/rider-tools/realtime/?Stop=A42212#realTimeResultsContainer"
570,42213,"S Courthouse Road, NB @ 5th Street S, NS",38.869600,-77.081300,"http://www.arlingtontransit.com/pages/rider-tools/realtime/?Stop=A42213#realTimeResultsContainer"
571,42215,"Washington Blvd, NB @ N Wayne Street, NS",38.876579,-77.085247,"http://www.arlingtontransit.com/pages/rider-tools/realtime/?Stop=A42215#realTimeResultsContainer"
572,42216,"Washington Blvd, NB @ N Barton Street, FS",38.877438,-77.086431,"http://www.arlingtontransit.com/pages/rider-tools/realtime/?Stop=A42216#realTimeResultsContainer"
574,42217,"Washington Blvd, NB @ 3rd Street N, NS",38.878571,-77.088018,"http://www.arlingtontransit.com/pages/rider-tools/realtime/?Stop=A42217#realTimeResultsContainer"
575,42218,"Washington Blvd, NB @ N Bryan Street, NS",38.879400,-77.089177,"http://www.arlingtontransit.com/pages/rider-tools/realtime/?Stop=A42218#realTimeResultsContainer"
576,42219,"Washington Blvd, NB @ N Pershing Drive, NS",38.880647,-77.090183,"http://www.arlingtontransit.com/pages/rider-tools/realtime/?Stop=A42219#realTimeResultsContainer"
577,42220,"Washington Blvd, NB @ 9th Street N, NS",38.882740,-77.091496,"http://www.arlingtontransit.com/pages/rider-tools/realtime/?Stop=A42220#realTimeResultsContainer"
578,41205,"Wilson Blvd, WB @ N Herndon Street, NS",38.887254,-77.095369,"http://www.arlingtontransit.com/pages/rider-tools/realtime/?Stop=A41205#realTimeResultsContainer"
579,41236,"Wilson Blvd, WB @ 10th Street N, NS",38.884804,-77.098380,"http://www.arlingtontransit.com/pages/rider-tools/realtime/?Stop=A41236#realTimeResultsContainer"
580,41237,"Wilson Blvd, WB @ N Monroe Street, FS",38.881931,-77.102948,"http://www.arlingtontransit.com/pages/rider-tools/realtime/?Stop=A41237#realTimeResultsContainer"
805,53227,"Military Road, SB @ Chainbridge EXIT, FS",38.924038,-77.122069,"http://www.arlingtontransit.com/pages/rider-tools/realtime/?Stop=A53227#realTimeResultsContainer"
806,53229,"Military Road, SB @ 37th Street N, MB",38.922146,-77.121083,"http://www.arlingtontransit.com/pages/rider-tools/realtime/?Stop=A53229#realTimeResultsContainer"
807,53230,"Military Road, SB @ 37th Street N, FS",38.920944,-77.120717,"http://www.arlingtontransit.com/pages/rider-tools/realtime/?Stop=A53230#realTimeResultsContainer"
808,53046,"Military Road, NB @ 36th Street N, FS",38.918041,-77.119258,"http://www.arlingtontransit.com/pages/rider-tools/realtime/?Stop=A53046#realTimeResultsContainer"
809,53249,"Military Road, SB @ 36th Street N, FS",38.917619,-77.119197,"http://www.arlingtontransit.com/pages/rider-tools/realtime/?Stop=A53249#realTimeResultsContainer"
810,53045,"Military Road, NB @ Nelly Curtis Drive, NS",38.903564,-77.108081,"http://www.arlingtontransit.com/pages/rider-tools/realtime/?Stop=A53045#realTimeResultsContainer"
811,52230,"Washington Blvd, EB@ N Utah Street",38.885428,-77.113828,"http://www.arlingtontransit.com/pages/rider-tools/realtime/?Stop=A52230#realTimeResultsContainer"
812,41032,"Wilson Blvd, EB @ 10th Street N, FS",38.884734,-77.098234,"http://www.arlingtontransit.com/pages/rider-tools/realtime/?Stop=A41032#realTimeResultsContainer"
813,42221,"N Garfield Street, NB @ 11th Street N, NS",38.886078,-77.093752,"http://www.arlingtontransit.com/pages/rider-tools/realtime/?Stop=A42221#realTimeResultsContainer"
814,42008,"Washington Blvd, SB @ 10th Street N, NS",38.884641,-77.093345,"http://www.arlingtontransit.com/pages/rider-tools/realtime/?Stop=A42008#realTimeResultsContainer"
815,42012,"Washington Blvd, SB @ N Brookside Drive, FS",38.877386,-77.086861,"http://www.arlingtontransit.com/pages/rider-tools/realtime/?Stop=A42012#realTimeResultsContainer"
817,42014,"Washington Blvd, SB @ Arlington Blvd (service), NS",38.875663,-77.084472,"http://www.arlingtontransit.com/pages/rider-tools/realtime/?Stop=A42014#realTimeResultsContainer"
818,42207,"Columbia Pike, WB @ S Oak Street, NS",38.867402,-77.068531,"http://www.arlingtontransit.com/pages/rider-tools/realtime/?Stop=A42207#realTimeResultsContainer"
819,42022,"Columbia Pike, EB @ S Oak Street, FS",38.867232,-77.068533,"http://www.arlingtontransit.com/pages/rider-tools/realtime/?Stop=A42022#realTimeResultsContainer"
820,42206,"S Joyce Street, NB @ Columbia Pike, NS",38.869388,-77.063993,"http://www.arlingtontransit.com/pages/rider-tools/realtime/?Stop=A42206#realTimeResultsContainer"
821,42023,"S Joyce Street, SB @ Columbia Pike, FS",38.869180,-77.064153,"http://www.arlingtontransit.com/pages/rider-tools/realtime/?Stop=A42023#realTimeResultsContainer"
822,42205,"Army Navy Drive, WB @ S Joyce Street, NS",38.866030,-77.062240,"http://www.arlingtontransit.com/pages/rider-tools/realtime/?Stop=A42205#realTimeResultsContainer"
823,42024,"Army Navy Drive, NB @ S Joyce Street, FS",38.865691,-77.061809,"http://www.arlingtontransit.com/pages/rider-tools/realtime/?Stop=A42024#realTimeResultsContainer"
825,42202,"Army Navy Drive, WB @ S Eads Street, FS",38.865106,-77.055238,"http://www.arlingtontransit.com/pages/rider-tools/realtime/?Stop=A42202#realTimeResultsContainer"
867,52204,"26th Street N, WB @ N Sycamore Street, FS",38.894504,-77.157901,"http://www.arlingtontransit.com/pages/rider-tools/realtime/?Stop=A52204#realTimeResultsContainer"
879,75021,"7th Road S, EB @ S Greenbrier Street, NS",38.857787,-77.120082,"http://www.arlingtontransit.com/pages/rider-tools/realtime/?Stop=A75021#realTimeResultsContainer"
880,42204,"Army Navy Drive, WB @ S Hayes Street, FS",38.865720,-77.060018,"http://www.arlingtontransit.com/pages/rider-tools/realtime/?Stop=A42204#realTimeResultsContainer"
885,53011,"Military Road, NB @ 24th Road N, NS",38.902637,-77.108337,"http://www.arlingtontransit.com/pages/rider-tools/realtime/?Stop=A53011#realTimeResultsContainer"
926,82007,"Shirlington Station, 2975 S Quincy Street, NB",38.839380,-77.087407,"http://www.arlingtontransit.com/pages/rider-tools/realtime/?Stop=A82007#realTimeResultsContainer"
927,77002,"S Arlington Mill Drive, WB @ S Taylor Street, FS",38.843759,-77.091807,"http://www.arlingtontransit.com/pages/rider-tools/realtime/?Stop=A77002#realTimeResultsContainer"
928,77003,"S Arlington Mill Drive, WB @ 28th Street S, FS",38.845437,-77.095924,"http://www.arlingtontransit.com/pages/rider-tools/realtime/?Stop=A77003#realTimeResultsContainer"
929,77004,"Walter Reed Drive, NB @ S Randolph Street, NS",38.847692,-77.094425,"http://www.arlingtontransit.com/pages/rider-tools/realtime/?Stop=A77004#realTimeResultsContainer"
930,77005,"Walter Reed Drive, NB @ S Pollard Street, FS",38.849953,-77.092707,"http://www.arlingtontransit.com/pages/rider-tools/realtime/?Stop=A77005#realTimeResultsContainer"
931,77006,"Walter Reed Drive, NB @ S Nelson Street, FS",38.852045,-77.091088,"http://www.arlingtontransit.com/pages/rider-tools/realtime/?Stop=A77006#realTimeResultsContainer"
934,77010,"Walter Reed Drive, NB @ 13th Road S, NS",38.858810,-77.087490,"http://www.arlingtontransit.com/pages/rider-tools/realtime/?Stop=A77010#realTimeResultsContainer"
935,77011,"Walter Reed Drive, NB @ 13th Street S, NS",38.859730,-77.087180,"http://www.arlingtontransit.com/pages/rider-tools/realtime/?Stop=A77011#realTimeResultsContainer"
941,87001,"Army Navy Drive, WB @ S Lynn Street, FS",38.865547,-77.065263,"http://www.arlingtontransit.com/pages/rider-tools/realtime/?Stop=A87001#realTimeResultsContainer"
942,87002,"Army Navy Drive, SB @ S Nash Street, NS",38.863878,-77.067850,"http://www.arlingtontransit.com/pages/rider-tools/realtime/?Stop=A87002#realTimeResultsContainer"
943,87003,"Army Navy Drive, SB @ 18th Street S, NS",38.859597,-77.069233,"http://www.arlingtontransit.com/pages/rider-tools/realtime/?Stop=A87003#realTimeResultsContainer"
944,87019,"Army Navy Drive, SB @ 18th Street S, FS",38.858716,-77.069847,"http://www.arlingtontransit.com/pages/rider-tools/realtime/?Stop=A87019#realTimeResultsContainer"
945,87004,"Army Navy Drive, SB @ 20th Street S, NS",38.855623,-77.072159,"http://www.arlingtontransit.com/pages/rider-tools/realtime/?Stop=A87004#realTimeResultsContainer"
946,87005,"Army Navy Drive, SB @ 22nd Street S, NS",38.854262,-77.073046,"http://www.arlingtontransit.com/pages/rider-tools/realtime/?Stop=A87005#realTimeResultsContainer"
947,87006,"Army Navy Drive, SB @ 23rd Street, NS",38.853196,-77.073819,"http://www.arlingtontransit.com/pages/rider-tools/realtime/?Stop=A87006#realTimeResultsContainer"
948,87007,"Army Navy Drive, SB @ 28th Street S, FS",38.851254,-77.075243,"http://www.arlingtontransit.com/pages/rider-tools/realtime/?Stop=A87007#realTimeResultsContainer"
949,87008,"Army Navy Drive, SB @ 25th Street, NS",38.848384,-77.077496,"http://www.arlingtontransit.com/pages/rider-tools/realtime/?Stop=A87008#realTimeResultsContainer"
950,87018,"S Adams Street, EB @ 25th Street S, FS",38.846886,-77.077651,"http://www.arlingtontransit.com/pages/rider-tools/realtime/?Stop=A87018#realTimeResultsContainer"
951,87009,"26th Street S, NB @ S Veitch Street, NS",38.846964,-77.075833,"http://www.arlingtontransit.com/pages/rider-tools/realtime/?Stop=A87009#realTimeResultsContainer"
952,87010,"26th Street S, NB @ S Troy Street, FS",38.848186,-77.075135,"http://www.arlingtontransit.com/pages/rider-tools/realtime/?Stop=A87010#realTimeResultsContainer"
953,87011,"28th Street S, EB @ 26th Street S, FS",38.848574,-77.074272,"http://www.arlingtontransit.com/pages/rider-tools/realtime/?Stop=A87011#realTimeResultsContainer"
954,87012,"28th Street S, EB @ 1428 28th Street S, MB",38.847110,-77.072247,"http://www.arlingtontransit.com/pages/rider-tools/realtime/?Stop=A87012#realTimeResultsContainer"
955,87013,"28th Street S, EB @ S Mead Street, NS",38.846454,-77.070538,"http://www.arlingtontransit.com/pages/rider-tools/realtime/?Stop=A87013#realTimeResultsContainer"
956,87014,"S Lang Street, SB @ 28th Street S, FS",38.845832,-77.066956,"http://www.arlingtontransit.com/pages/rider-tools/realtime/?Stop=A87014#realTimeResultsContainer"
957,87015,"S Glebe Road, NB @ S Mead Street, NS",38.844841,-77.068725,"http://www.arlingtontransit.com/pages/rider-tools/realtime/?Stop=A87015#realTimeResultsContainer"
958,87016,"S Glebe Road, NB @ S Troy Street, NS",38.844538,-77.071463,"http://www.arlingtontransit.com/pages/rider-tools/realtime/?Stop=A87016#realTimeResultsContainer"
959,87017,"S Glebe Road, NB @ S Adams Street, NS",38.844173,-77.074669,"http://www.arlingtontransit.com/pages/rider-tools/realtime/?Stop=A87017#realTimeResultsContainer"
961,82102,"Shirlington Road, SB @ 25th Street S, FS",38.847015,-77.083916,"http://www.arlingtontransit.com/pages/rider-tools/realtime/?Stop=A82102#realTimeResultsContainer"
962,82103,"Shirlington Road, SB @ S Kemper Road, NS",38.844817,-77.084741,"http://www.arlingtontransit.com/pages/rider-tools/realtime/?Stop=A82103#realTimeResultsContainer"
966,87210,"S Glebe Road, SB @ S Adams Street, FS",38.844023,-77.074588,"http://www.arlingtontransit.com/pages/rider-tools/realtime/?Stop=A87210#realTimeResultsContainer"
967,87211,"S Glebe Road, SB @ S Troy Street, FS",38.844299,-77.071489,"http://www.arlingtontransit.com/pages/rider-tools/realtime/?Stop=A87211#realTimeResultsContainer"
968,87212,"S Glebe Road, SB @ S Meade Street, FS",38.844668,-77.068535,"http://www.arlingtontransit.com/pages/rider-tools/realtime/?Stop=A87212#realTimeResultsContainer"
969,87213,"28th Street S, WB @ opposite 1400, MB",38.846828,-77.071209,"http://www.arlingtontransit.com/pages/rider-tools/realtime/?Stop=A87213#realTimeResultsContainer"
970,87214,"28th Street S, WB @ 1501 28th Street S, MB",38.847565,-77.072814,"http://www.arlingtontransit.com/pages/rider-tools/realtime/?Stop=A87214#realTimeResultsContainer"
971,87215,"28th Street S, WB @ 26th Street S, NS",38.848750,-77.074180,"http://www.arlingtontransit.com/pages/rider-tools/realtime/?Stop=A87215#realTimeResultsContainer"
972,87216,"26th Street S, SB @ S Troy Street, FS",38.848509,-77.075119,"http://www.arlingtontransit.com/pages/rider-tools/realtime/?Stop=A87216#realTimeResultsContainer"
973,87217,"26th Street S, SB @ 25th Street S, FS",38.847712,-77.075575,"http://www.arlingtontransit.com/pages/rider-tools/realtime/?Stop=A87217#realTimeResultsContainer"
974,87218,"S Adams Street, NB @ 26th Street S, FS",38.846514,-77.077244,"http://www.arlingtontransit.com/pages/rider-tools/realtime/?Stop=A87218#realTimeResultsContainer"
975,87226,"Army Navy Drive, NB @ 25th Street S, FS",38.848119,-77.077372,"http://www.arlingtontransit.com/pages/rider-tools/realtime/?Stop=A87226#realTimeResultsContainer"
976,87219,"Army Navy Drive, NB @ 28th Street S, NS",38.851500,-77.074834,"http://www.arlingtontransit.com/pages/rider-tools/realtime/?Stop=A87219#realTimeResultsContainer"
977,87220,"Army Navy Drive, NB @ 23rd Street S, NS",38.852988,-77.073814,"http://www.arlingtontransit.com/pages/rider-tools/realtime/?Stop=A87220#realTimeResultsContainer"
978,87221,"Army Navy Drive, NB @ 22nd Street S, FS",38.854401,-77.072736,"http://www.arlingtontransit.com/pages/rider-tools/realtime/?Stop=A87221#realTimeResultsContainer"
979,87222,"Army Navy Drive, NB @ 20th Street S, FS",38.855807,-77.071893,"http://www.arlingtontransit.com/pages/rider-tools/realtime/?Stop=A87222#realTimeResultsContainer"
980,87223,"Army Navy Drive, NB @ 18th Street S, NS",38.858905,-77.069465,"http://www.arlingtontransit.com/pages/rider-tools/realtime/?Stop=A87223#realTimeResultsContainer"
981,87224,"Army Navy Dr, NB @ S Nash St (Horizon APTS), FS",38.863750,-77.067666,"http://www.arlingtontransit.com/pages/rider-tools/realtime/?Stop=A87224#realTimeResultsContainer"
982,87225,"Army Navy Drive, NB @ S Lynn Street, NS",38.865345,-77.065268,"http://www.arlingtontransit.com/pages/rider-tools/realtime/?Stop=A87225#realTimeResultsContainer"
985,77015,"Walter Reed Drive, NB @ 6th Street S, NS",38.867474,-77.087856,"http://www.arlingtontransit.com/pages/rider-tools/realtime/?Stop=A77015#realTimeResultsContainer"
986,77016,"Clarendon Blvd, EB @ N Fillmore Street, NS",38.887710,-77.093320,"http://www.arlingtontransit.com/pages/rider-tools/realtime/?Stop=A77016#realTimeResultsContainer"
988,77210,"Walter Reed Drive, SB @ S Randolph Street, NS",38.848080,-77.094458,"http://www.arlingtontransit.com/pages/rider-tools/realtime/?Stop=A77210#realTimeResultsContainer"
992,77201,"Walter Reed Drive, SB @ 8th Street S, NS",38.866039,-77.087871,"http://www.arlingtontransit.com/pages/rider-tools/realtime/?Stop=A77201#realTimeResultsContainer"
993,77202,"Walter Reed Drive, SB @ 9th Street S, NS",38.864406,-77.087525,"http://www.arlingtontransit.com/pages/rider-tools/realtime/?Stop=A77202#realTimeResultsContainer"
994,77203,"Walter Reed Drive, SB @ Columbia Pike, FS",38.862261,-77.087136,"http://www.arlingtontransit.com/pages/rider-tools/realtime/?Stop=A77203#realTimeResultsContainer"
995,77204,"Walter Reed Drive, SB @ 13th Street S, NS",38.860105,-77.087358,"http://www.arlingtontransit.com/pages/rider-tools/realtime/?Stop=A77204#realTimeResultsContainer"
996,77205,"Walter Reed Drive, SB @ 13th Road S, FS",38.858872,-77.087721,"http://www.arlingtontransit.com/pages/rider-tools/realtime/?Stop=A77205#realTimeResultsContainer"
997,77206,"Walter Reed Drive, SB @ 15th Street S, NS",38.857171,-77.088282,"http://www.arlingtontransit.com/pages/rider-tools/realtime/?Stop=A77206#realTimeResultsContainer"
998,77207,"Walter Reed Drive, SB @ Glebe Road, NS",38.856110,-77.088585,"http://www.arlingtontransit.com/pages/rider-tools/realtime/?Stop=A77207#realTimeResultsContainer"
999,77214,"Walter Reed Drive, SB @ 18th Street S, NS",38.853920,-77.089116,"http://www.arlingtontransit.com/pages/rider-tools/realtime/?Stop=A77214#realTimeResultsContainer"
1000,77208,"Walter Reed Drive, SB @ 19th Street S, FS",38.851812,-77.091561,"http://www.arlingtontransit.com/pages/rider-tools/realtime/?Stop=A77208#realTimeResultsContainer"
1001,77209,"Walter Reed Drive, SB @ S Pollard Street, NS",38.850003,-77.092963,"http://www.arlingtontransit.com/pages/rider-tools/realtime/?Stop=A77209#realTimeResultsContainer"
1002,77215,"S Arlington Mill Drive, EB @ 28th Road S, NS",38.845339,-77.096184,"http://www.arlingtontransit.com/pages/rider-tools/realtime/?Stop=A77215#realTimeResultsContainer"
1003,77211,"S Arlington Mill Drive, EB @ 28th Road S, FS",38.844802,-77.094992,"http://www.arlingtontransit.com/pages/rider-tools/realtime/?Stop=A77211#realTimeResultsContainer"
1004,77212,"S Arlington Mill Drive, EB @ S Taylor Street, NS",38.843654,-77.092072,"http://www.arlingtontransit.com/pages/rider-tools/realtime/?Stop=A77212#realTimeResultsContainer"
1005,77213,"S Arlington Mill Drive, EB @ S Campbell Avenue, FS",38.841930,-77.089412,"http://www.arlingtontransit.com/pages/rider-tools/realtime/?Stop=A77213#realTimeResultsContainer"
1006,77001,"S Arlington Mill Drive, WB @ S Campbell Avenue, FS",38.842481,-77.089856,"http://www.arlingtontransit.com/pages/rider-tools/realtime/?Stop=A77001#realTimeResultsContainer"
1007,77008,"Walter Reed Drive, NB @ 16th Road S, NS",38.855799,-77.088319,"http://www.arlingtontransit.com/pages/rider-tools/realtime/?Stop=A77008#realTimeResultsContainer"
1008,77009,"Walter Reed Drive, NB @ 16th Street S, NS",38.856554,-77.088153,"http://www.arlingtontransit.com/pages/rider-tools/realtime/?Stop=A77009#realTimeResultsContainer"
1009,77012,"Walter Reed Drive, NB @ Columbia Pike, NS",38.862030,-77.086861,"http://www.arlingtontransit.com/pages/rider-tools/realtime/?Stop=A77012#realTimeResultsContainer"
1010,77017,"Walter Reed Drive, NB @ Columbia Pike , FS",38.862880,-77.086937,"http://www.arlingtontransit.com/pages/rider-tools/realtime/?Stop=A77017#realTimeResultsContainer"
1011,77013,"Walter Reed Drive, NB @ 9th Street S, NS",38.863913,-77.087166,"http://www.arlingtontransit.com/pages/rider-tools/realtime/?Stop=A77013#realTimeResultsContainer"
1012,77014,"Walter Reed Drive, NB @ 8th Street S, NS",38.865645,-77.087526,"http://www.arlingtontransit.com/pages/rider-tools/realtime/?Stop=A77014#realTimeResultsContainer"
1013,61019,"N Veitch Street, NB @ Wilson Blvd, FS",38.891919,-77.085828,"http://www.arlingtontransit.com/pages/rider-tools/realtime/?Stop=A61019#realTimeResultsContainer"
1014,62016,"Court House Metro, 15th St N, EB @ N Uhle St, NS",38.890685,-77.084636,"http://www.arlingtontransit.com/pages/rider-tools/realtime/?Stop=A62016#realTimeResultsContainer"
1015,42222,"Washington Blvd, NB @ 10th Street N, FS",38.884865,-77.093224,"http://www.arlingtontransit.com/pages/rider-tools/realtime/?Stop=A42222#realTimeResultsContainer"
1016,42223,"Wilson Blvd, WB @ N Randolph Street, NS",38.879995,-77.108711,"http://www.arlingtontransit.com/pages/rider-tools/realtime/?Stop=A42223#realTimeResultsContainer"
1017,87227,"28th Street S, WB @ S Lang Street, FS",38.846183,-77.067296,"http://www.arlingtontransit.com/pages/rider-tools/realtime/?Stop=A87227#realTimeResultsContainer"
1020,75129,"Wilson Blvd, EB @ N Wakefield Street, FS",38.879530,-77.115404,"http://www.arlingtontransit.com/pages/rider-tools/realtime/?Stop=A75129#realTimeResultsContainer"
1022,62215,"Lee Highway, EB @ N Utah Street, MB ",38.897124,-77.114199,"http://www.arlingtontransit.com/pages/rider-tools/realtime/?Stop=A62215#realTimeResultsContainer"
1023,75002,"Wilson Blvd, WB @ N Taylor Street, NS",38.880140,-77.112232,"http://www.arlingtontransit.com/pages/rider-tools/realtime/?Stop=A75002#realTimeResultsContainer"
1076,77217,"6th Street S, WB @ N Fillmore Street, NS",38.868100,-77.087700,"http://www.arlingtontransit.com/pages/rider-tools/realtime/?Stop=A77217#realTimeResultsContainer"
1077,41033,"Wilson Blvd, EB @ N Monroe Street, FS",38.882005,-77.102437,"http://www.arlingtontransit.com/pages/rider-tools/realtime/?Stop=A41033#realTimeResultsContainer"
1078,77218,"6th Street S, WB @ S Wayne Street, NS",38.868829,-77.083382,"http://www.arlingtontransit.com/pages/rider-tools/realtime/?Stop=A77218#realTimeResultsContainer"
1079,77018,"6th Street S, EB @ S Wayne Street, FS",38.868664,-77.083047,"http://www.arlingtontransit.com/pages/rider-tools/realtime/?Stop=A77018#realTimeResultsContainer"
1080,42027,"Pentagon Station Drop Off Bays",38.869312,-77.053435,"http://www.arlingtontransit.com/pages/rider-tools/realtime/?Stop=A42027#realTimeResultsContainer"
1081,,"Pentagon Station BUS BAY U11",38.869417,-77.053283,""
1084,74025,"S Quinn Street, NB @ Columbia Pike, NS",38.865556,-77.074661,"http://www.arlingtontransit.com/pages/rider-tools/realtime/?Stop=A74025#realTimeResultsContainer"
1085,84005,"S Kenmore Street, NB @ 22nd Street S, NS",38.849719,-77.085425,"http://www.arlingtontransit.com/pages/rider-tools/realtime/?Stop=A84005#realTimeResultsContainer"
1086,84002,"S Kenmore Street, SB @ 22nd Street S, FS",38.849497,-77.085472,"http://www.arlingtontransit.com/pages/rider-tools/realtime/?Stop=A84002#realTimeResultsContainer"
1087,84003,"S Kenmore Street, SB @ 24th Street S, NS",38.848557,-77.084949,"http://www.arlingtontransit.com/pages/rider-tools/realtime/?Stop=A84003#realTimeResultsContainer"
1088,84004,"S Kenmore Street, NB @ 24th Street S, NS",38.848253,-77.084602,"http://www.arlingtontransit.com/pages/rider-tools/realtime/?Stop=A84004#realTimeResultsContainer"
1091,45004,"S George Mason Drive, SB @ At 1402, MB",38.853888,-77.101927,"http://www.arlingtontransit.com/pages/rider-tools/realtime/?Stop=A45004#realTimeResultsContainer"
1092,45002,"S Four Mile Run Drive, WB @ Across from 4600, MB",38.855267,-77.106618,"http://www.arlingtontransit.com/pages/rider-tools/realtime/?Stop=A45002#realTimeResultsContainer"
1093,45003,"S George Mason Drive, SB @ 12th Road S, NS",38.857659,-77.100819,"http://www.arlingtontransit.com/pages/rider-tools/realtime/?Stop=A45003#realTimeResultsContainer"
1094,45005,"Columbia Pike, EB @ S Glebe Rd, FS",38.861346,-77.091210,"http://www.arlingtontransit.com/pages/rider-tools/realtime/?Stop=A45005#realTimeResultsContainer"
1095,45009,"Columbia Pike, WB @ S Glebe Rd, NS",38.861580,-77.091187,"http://www.arlingtontransit.com/pages/rider-tools/realtime/?Stop=A45009#realTimeResultsContainer"
1096,45008,"Columbia Pike, WB @ Walter Reed Drive, NS",38.862707,-77.086780,"http://www.arlingtontransit.com/pages/rider-tools/realtime/?Stop=A45008#realTimeResultsContainer"
1097,45006,"Columbia Pike, EB @ Walter Reed Drive, FS",38.862577,-77.086579,"http://www.arlingtontransit.com/pages/rider-tools/realtime/?Stop=A45006#realTimeResultsContainer"
1098,45007,"Columbia Pike, WB @ S Barton St, FS",38.863348,-77.084432,"http://www.arlingtontransit.com/pages/rider-tools/realtime/?Stop=A45007#realTimeResultsContainer"
1099,45001,"Sequoia/DHS S Uhle Street WB @ S Walter Reed Stree",38.872790,-77.082993,"http://www.arlingtontransit.com/pages/rider-tools/realtime/?Stop=A45001#realTimeResultsContainer"
1100,41034,"Columbia Pike, EB @ Four Mile Run Bridge, NS",38.856031,-77.111233,"http://www.arlingtontransit.com/pages/rider-tools/realtime/?Stop=A41034#realTimeResultsContainer"
1101,41238,"Columbia Pike, WB @ Four Mile Run Bridge, NS",38.856330,-77.110766,"http://www.arlingtontransit.com/pages/rider-tools/realtime/?Stop=A41238#realTimeResultsContainer"
1102,75139,"N Monroe Street, SB @ 9th St N, FS",38.882490,-77.102920,"http://www.arlingtontransit.com/pages/rider-tools/realtime/?Stop=A75139#realTimeResultsContainer"
1103,75022,"S Dinwiddie St SB @ 14th St S, NS",38.846760,-77.111910,"http://www.arlingtontransit.com/pages/rider-tools/realtime/?Stop=A75022#realTimeResultsContainer"
1104,75023,"S Dinwiddie St SB @ Sth Chesterfield Rd, NS",38.845680,-77.109040,"http://www.arlingtontransit.com/pages/rider-tools/realtime/?Stop=A75023#realTimeResultsContainer"
1105,75024,"S Dinwiddie St SB @ 25th St Sth, NS",38.843120,-77.104930,"http://www.arlingtontransit.com/pages/rider-tools/realtime/?Stop=A75024#realTimeResultsContainer"
1106,75025,"S Walter Reed DR EB @ S Wakefield St, NS",38.844620,-77.099350,"http://www.arlingtontransit.com/pages/rider-tools/realtime/?Stop=A75025#realTimeResultsContainer"
1107,75026,"S Walter Reed Dr EB @ S Four Mile Run Rd, NS",38.846620,-77.095230,"http://www.arlingtontransit.com/pages/rider-tools/realtime/?Stop=A75026#realTimeResultsContainer"
1108,75027,"S Four Mile Run Rd EB @ S Oxford St, NS",38.845560,-77.092280,"http://www.arlingtontransit.com/pages/rider-tools/realtime/?Stop=A75027#realTimeResultsContainer"
1109,75028,"S Four Mile Run Drive EB @ S Nelson St, NS",38.844530,-77.088790,"http://www.arlingtontransit.com/pages/rider-tools/realtime/?Stop=A75028#realTimeResultsContainer"
1110,75029,"S Four Mile Run Drive EB @ S Shirlington Rd, NS",38.843980,-77.085880,"http://www.arlingtontransit.com/pages/rider-tools/realtime/?Stop=A75029#realTimeResultsContainer"
1111,75030,"S Randolf Street SB @ Campbell Ave, FS",38.840680,-77.088880,"http://www.arlingtontransit.com/pages/rider-tools/realtime/?Stop=A75030#realTimeResultsContainer"
1112,75031,"Shirlington Station NB",38.839620,-77.087170,"http://www.arlingtontransit.com/pages/rider-tools/realtime/?Stop=A75031#realTimeResultsContainer"
1113,75131,"S Four Mile Run Drive WB @ S Shirlington Rd, FS",38.844210,-77.086080,"http://www.arlingtontransit.com/pages/rider-tools/realtime/?Stop=A75131#realTimeResultsContainer"
1114,75132,"S Four Mile Run Drive WB @ S Oakland St, FS",38.844880,-77.089760,"http://www.arlingtontransit.com/pages/rider-tools/realtime/?Stop=A75132#realTimeResultsContainer"
1115,75133,"S Four Mile Run Drive WB @ S Oxford St, FS",38.845570,-77.092010,"http://www.arlingtontransit.com/pages/rider-tools/realtime/?Stop=A75133#realTimeResultsContainer"
1116,75134,"S Walter Reed Drive WB @ S Four Mile Run Drive, FS",38.846650,-77.095580,"http://www.arlingtontransit.com/pages/rider-tools/realtime/?Stop=A75134#realTimeResultsContainer"
1117,75135,"S Walter Reed Drive WB @ S Wakefield St, FS",38.844680,-77.099590,"http://www.arlingtontransit.com/pages/rider-tools/realtime/?Stop=A75135#realTimeResultsContainer"
1118,75136,"S Dinwiddie St NB @ 25th St S, NS",38.843030,-77.104650,"http://www.arlingtontransit.com/pages/rider-tools/realtime/?Stop=A75136#realTimeResultsContainer"
1119,75137,"S Dinwiddie St NB @ 14th St S, NS",38.846760,-77.111610,"http://www.arlingtontransit.com/pages/rider-tools/realtime/?Stop=A75137#realTimeResultsContainer"
1120,75138,"Fairfax Drive EB @ Quincy Street, FS",38.882340,-77.107430,"http://www.arlingtontransit.com/pages/rider-tools/realtime/?Stop=A75138#realTimeResultsContainer"
1121,75140,"Ballston Metro D, N Stuart St, NB @ N Fairfax Dr",38.881940,-77.111740,"http://www.arlingtontransit.com/pages/rider-tools/realtime/?Stop=A75140#realTimeResultsContainer"
1123,45010,"Clarendon Blvd, EB @ N Pierce Street, FS",38.893407,-77.076403,"http://www.arlingtontransit.com/pages/rider-tools/realtime/?Stop=A45010#realTimeResultsContainer"
1124,51015,"16th Street N, EB @ Virginia Hospital Ctr, MB",38.888115,-77.126179,"http://www.arlingtontransit.com/pages/rider-tools/realtime/?Stop=A51015#realTimeResultsContainer"
1125,42028,"2nd St S, EB @ S Courthouse Rd, SB",38.871573,-77.081959,"http://www.arlingtontransit.com/pages/rider-tools/realtime/?Stop=A42028#realTimeResultsContainer"
1126,52030,"N Glebe Road, NB @ 11th Street N, NS",38.883385,-77.116248,"http://www.arlingtontransit.com/pages/rider-tools/realtime/?Stop=A52030#realTimeResultsContainer"
1127,52031,"N Glebe Road, NB @ 15th Street N, NS",38.888718,-77.118664,"http://www.arlingtontransit.com/pages/rider-tools/realtime/?Stop=A52031#realTimeResultsContainer"
1128,45023,"Wilson Blvd, WB @ N Pierce Street, FS",38.894447,-77.076920,"http://www.arlingtontransit.com/pages/rider-tools/realtime/?Stop=A45023#realTimeResultsContainer"
1129,45024,"N  Barton Street, SB @ 10th Street N, NS",38.885025,-77.087990,"http://www.arlingtontransit.com/pages/rider-tools/realtime/?Stop=A45024#realTimeResultsContainer"
1130,45019,"N Pershing Drive, WB @ N Danville Street, NS",38.880862,-77.089580,"http://www.arlingtontransit.com/pages/rider-tools/realtime/?Stop=A45019#realTimeResultsContainer"
1131,45020,"N Pershing Drive, EB @ N Danville Street, FS",38.880737,-77.089450,"http://www.arlingtontransit.com/pages/rider-tools/realtime/?Stop=A45020#realTimeResultsContainer"
1132,45021,"N Barton Street, NB @ 10th Street N, FS",38.884885,-77.087810,"http://www.arlingtontransit.com/pages/rider-tools/realtime/?Stop=A45021#realTimeResultsContainer"
1133,45022,"Clarendon Blvd, EB @ N Rhodes Street, FS",38.892834,-77.079277,"http://www.arlingtontransit.com/pages/rider-tools/realtime/?Stop=A45022#realTimeResultsContainer"
1134,45011,"Columbia Pike, WB @ S Jefferson Street, NS",38.853638,-77.119637,"http://www.arlingtontransit.com/pages/rider-tools/realtime/?Stop=A45011#realTimeResultsContainer"
1135,45012,"8th Road S, EB @ S Carlin Springs Road, FS",38.855599,-77.123261,"http://www.arlingtontransit.com/pages/rider-tools/realtime/?Stop=A45012#realTimeResultsContainer"
1136,45013,"8th Road S, EB @ S Harrison Street, NS",38.856304,-77.121351,"http://www.arlingtontransit.com/pages/rider-tools/realtime/?Stop=A45013#realTimeResultsContainer"
1137,45014,"8th Road S, EB @ S Greenbrier Street, NS",38.856503,-77.119075,"http://www.arlingtontransit.com/pages/rider-tools/realtime/?Stop=A45014#realTimeResultsContainer"
1138,45015,"S Greenbrier Street, SB @ #835, MB",38.855362,-77.118430,"http://www.arlingtontransit.com/pages/rider-tools/realtime/?Stop=A45015#realTimeResultsContainer"
1139,45016,"S Four Mile Run Drive, EB @ #4500, MB",38.854745,-77.106035,"http://www.arlingtontransit.com/pages/rider-tools/realtime/?Stop=A45016#realTimeResultsContainer"
1140,45017,"S George Mason Drive, NB @ #1402, MB",38.853748,-77.101664,"http://www.arlingtontransit.com/pages/rider-tools/realtime/?Stop=A45017#realTimeResultsContainer"
1141,45018,"S George Mason Drive, NB @ 12th Road S, FS",38.858212,-77.100729,"http://www.arlingtontransit.com/pages/rider-tools/realtime/?Stop=A45018#realTimeResultsContainer"
1144,45025,"N Barton Street, NB @ 9th Street N, NS",38.882839,-77.087501,"http://www.arlingtontransit.com/pages/rider-tools/realtime/?Stop=A45025#realTimeResultsContainer"
1145,45026,"N Barton Street, NB @ N Pershing Drive",38.880725,-77.087235,"http://www.arlingtontransit.com/pages/rider-tools/realtime/?Stop=A45026#realTimeResultsContainer"
1146,45027,"N Barton Street, SB @ N Pershing Drive, NS",38.880924,-77.087376,"http://www.arlingtontransit.com/pages/rider-tools/realtime/?Stop=A45027#realTimeResultsContainer"
1147,47028,"N Barton Street, SB @ 9th Street N, NS",38.883097,-77.087636,"http://www.arlingtontransit.com/pages/rider-tools/realtime/?Stop=A47028#realTimeResultsContainer"
1148,62017,"15th Street N, WB @ N Stafford Street, NS",38.889352,-77.111347,"http://www.arlingtontransit.com/pages/rider-tools/realtime/?Stop=A62017#realTimeResultsContainer"
1149,62220,"15th Street N, EB @ N Stafford Street, NS",38.889120,-77.111593,"http://www.arlingtontransit.com/pages/rider-tools/realtime/?Stop=A62220#realTimeResultsContainer"
1150,62018,"N Kirkwood Street, SB @ 16th Street N, NS",38.890359,-77.101157,"http://www.arlingtontransit.com/pages/rider-tools/realtime/?Stop=A62018#realTimeResultsContainer"
1151,62219,"N Kirkwood Street, NB @ 17th Street N, NS",38.891227,-77.100765,"http://www.arlingtontransit.com/pages/rider-tools/realtime/?Stop=A62219#realTimeResultsContainer"
1152,62019,"N Kirkwood Street, SB @ 13th Street N, FS",38.887444,-77.100629,"http://www.arlingtontransit.com/pages/rider-tools/realtime/?Stop=A62019#realTimeResultsContainer"
1153,62218,"N Kirkwood Street, NB @ 13th Street N, NS",38.887512,-77.100341,"http://www.arlingtontransit.com/pages/rider-tools/realtime/?Stop=A62218#realTimeResultsContainer"
1154,62217,"Washington Blvd, WB @ 13th Street N, NS",38.886133,-77.098939,"http://www.arlingtontransit.com/pages/rider-tools/realtime/?Stop=A62217#realTimeResultsContainer"
1156,15002,"Columbia Pike, EB @ S Courthouse Rd, NS",38.864103,-77.080546,"http://www.arlingtontransit.com/pages/rider-tools/realtime/?Stop=A15002#realTimeResultsContainer"
1157,15003,"Columbia Pike, WB @ S Courthouse Rd, FS",38.864223,-77.081001,"http://www.arlingtontransit.com/pages/rider-tools/realtime/?Stop=A15003#realTimeResultsContainer"
1158,15004,"S Quincy Street, SB @ 19th Street S, NS",38.851279,-77.095316,"http://www.arlingtontransit.com/pages/rider-tools/realtime/?Stop=A15004#realTimeResultsContainer"
1159,15005,"19th Street S, EB @S Nelson Street, NS",38.852136,-77.091520,"http://www.arlingtontransit.com/pages/rider-tools/realtime/?Stop=A15005#realTimeResultsContainer"
1160,15006,"S Oakland Street, SB @S Walter Reed Drive, MB",38.849744,-77.091257,"http://www.arlingtontransit.com/pages/rider-tools/realtime/?Stop=A15006#realTimeResultsContainer"
1161,15007,"22nd Street S, EB @ S Nelson Street, NS",38.848373,-77.089956,"http://www.arlingtontransit.com/pages/rider-tools/realtime/?Stop=A15007#realTimeResultsContainer"
1162,15008,"22nd Street S, EB @ S Lowell Street, FS",38.848931,-77.087966,"http://www.arlingtontransit.com/pages/rider-tools/realtime/?Stop=A15008#realTimeResultsContainer"
1164,15009,"22nd Street S, WB @ S Lowell Street, NS",38.849023,-77.088044,"http://www.arlingtontransit.com/pages/rider-tools/realtime/?Stop=A15009#realTimeResultsContainer"
1165,15010,"22nd Street S, WB @ S Oakland Street, NS",38.848380,-77.090490,"http://www.arlingtontransit.com/pages/rider-tools/realtime/?Stop=A15010#realTimeResultsContainer"
1166,15011,"S Oakland Street, NB @ S Walter Reed Drive, MB",38.849722,-77.091205,"http://www.arlingtontransit.com/pages/rider-tools/realtime/?Stop=A15011#realTimeResultsContainer"
1167,15012,"S Monroe Street, NB @ 18th Street S, NS",38.853288,-77.090601,"http://www.arlingtontransit.com/pages/rider-tools/realtime/?Stop=A15012#realTimeResultsContainer"
1168,61002,"Rosslyn Metro",38.895245,-77.071567,"http://www.arlingtontransit.com/pages/rider-tools/realtime/?Stop=A61002#realTimeResultsContainer"
