stop_id,stop_code,stop_name,stop_desc,stop_lat,stop_lon,zone_id,stop_url,location_type,parent_station,stop_timezone,wheelchair_boarding
07639bec-d0a3-4782-bc63-eb6c253f71e6,1216,"Prices Fork/Plantation Ebnd","240",37.22531,-80.44513,,,0,,,
40604e99-7617-4747-a47d-e472d6a7600e,1104,"Old Security Bldg","704",37.23154,-80.42213,,,0,,,
ce57e757-330f-4efe-9b80-6393d4aa773a,1105,"Stanger/Perry Nbnd","705",37.23255,-80.4241,,,0,,,
8a681ad9-b769-46dd-a311-c7f5ee59d9e7,1207,"Tall Oaks/Heather Ebnd","231",37.21719,-80.44864,,,0,,,
295023a1-689e-432b-94fb-413d95b4b3a0,1213,"Heather/Plymouth Nbnd","237",37.2196,-80.44814,,,0,,,
9fe98804-bf42-4709-adeb-3fc573793019,1214,"Heather/Huntington Nbnd","238",37.22206,-80.4489,,,0,,,
bc871a56-6542-45ef-9206-0a9dfc7a9e5b,1200,"Prices Fork/Old Glade Wbnd","224",37.23149,-80.43459,,,0,,,
505b6596-366d-44ca-8580-8d65e3843e6f,1201,"Vet School Wbnd","225",37.22961,-80.43781,,,0,,,
3fe578c1-3a41-443a-b209-143ede842cde,1212,"Heather/Tall Oaks Nbnd","236",37.21773,-80.44827,,,0,,,
81d045c7-5a89-419c-9f10-e5de6013aad7,1115,"Wright House","716",37.22675,-80.42575,,,0,,,
584cef81-4c1f-4245-b369-06016b5c86b1,1107,"Hutcheson Hall","707",37.22598,-80.42287,,,0,,,
be5ae22e-96dc-4ca7-b99e-c717d6beca60,1108,"War Memorial Hall","708",37.22667,-80.42157,,,0,,,
a9cde927-9728-42b3-be50-e49e77b62438,1205,"Tall Oaks/Hethwood Ebnd","229",37.21447,-80.45221,,,0,,,
84c807c9-5ef6-47b5-a9bd-42d9b7ced214,1204,"Hethwood Square on Hethwood","228",37.21678,-80.45338,,,0,,,
27e4fcb5-2816-4d47-8f83-060fd4d3fab7,1215,"Prices Fork/Huntington Ebnd","239",37.22491,-80.44635,,,0,,,
2ccb2773-b491-4dbc-b698-5806703f5b71,1202,"Prices Fork/Plantation Wbnd","226",37.22541,-80.44526,,,0,,,
36763db9-cea4-42e0-b369-13c5e5720391,1217,"Vet School Ebnd","241",37.22962,-80.43758,,,0,,,
270f43fc-b369-4479-8dd7-a59ed5862da6,1218,"Prices Fork/Old Glade Ebnd","242",37.23142,-80.43441,,,0,,,
13df8a66-2c07-4723-89e4-ac5eac3a2f6b,1203,"Prices Fork/Huntington Wbnd","227",37.22456,-80.44733,,,0,,,
9e6bc325-a120-4159-aee7-870052c19b28,1114,"Torgersen Hall","714",37.22966,-80.42085,,,0,,,
17cd150f-1339-4800-82f3-01793fd29f65,1206,"Tall Oaks/Foxhunt Ebnd","230",37.21576,-80.45046,,,0,,,
be1e4b72-b27b-46d7-9528-1b49dccbfe11,1330,"Toms Creek/McBryde Sbnd","414",37.23954,-80.42695,,,0,,,
a9f9ff3d-bcf1-416c-98d9-262e24628888,1102,"Davidson Hall","702",37.22645,-80.42529,,,0,,,
24e0170c-5eb2-4fe9-97f2-ebd64e2126a9,1103,"West Campus/Perry Nbnd","703",37.2289,-80.42745,,,0,,,
c637eddf-63fd-4cf6-b383-e7c97619582c,1334,"Prices Fork/Turner Ebnd","418",37.23382,-80.42281,,,0,,,
1d0450ac-386b-43ed-9bbe-6826e19eaafb,1331,"Toms Creek/Watson Sbnd","415",37.23824,-80.42658,,,0,,,
67782c37-6df7-46b9-9fcc-3834a0e178ab,1332,"Gilbert Linkous Sbnd","416",37.23654,-80.42683,,,0,,,
da491883-a561-4a7a-aefd-4e1f5ef8d708,1333,"Toms Creek/Winston Sbnd","417",37.23438,-80.42564,,,0,,,
43a29334-bb62-49a7-8c13-b51737d75c2b,1133,"CTAS Institute Bldg","764",37.23212,-80.42288,,,0,,,
66280847-c8f1-4a09-9653-cc315e7a4da8,1106,"McBryde Hall","706",37.23045,-80.42103,,,0,,,
fbcfa599-2dbe-4eea-9512-8c2e8b6cfe5f,1339,"Progress/Watson Nbnd","",37.23894,-80.4221,,,0,,,
01c4fb4c-6ef5-47f5-b6df-17310d4fb6d4,1305,"Progress/Broce Nbnd","305",37.24237,-80.42226,,,0,,,
36a9e05b-8b67-4921-bf3d-ee9aaa82e8a5,1306,"Progress/University Terr Nbnd","306",37.24423,-80.42149,,,0,,,
c5d2d999-1594-4847-bd9d-893df34777f8,1307,"Progress/Patrick Henry Nbnd","307",37.24522,-80.42153,,,0,,,
f1df06a3-440c-4bb6-8fb2-fb7247c18136,1309,"Patrick Henry/Toms Creek Wbnd","309",37.2438,-80.42802,,,0,,,
0be6fcd0-cfa8-42cd-8b38-2c35c8e3d765,1338,"Toms Creek/Hunt Club Sbnd","",37.24203,-80.42765,,,0,,,
8f8c13cf-9162-4465-9a76-cdbde5695294,1101,"Burruss Hall","701",37.2285,-80.42286,,,0,,,
686c6745-e207-4bd5-880b-7166823c885a,1308,"The Village on Patrick Henry Wbnd","308",37.24493,-80.42521,,,0,,,
abcfb03b-bcdf-441e-874e-b7179adb11e0,1100,"Newman Library","700",37.22854,-80.41976,,,0,,,
0bbc3c55-6b2a-4a41-8c78-c17f9765df35,1336,"University Mall Main Entrance","501",37.23429,-80.43418,,,0,,,
196deff1-c65e-43df-8129-dbbb3592a7b5,1335,"Old Glade/Glade Nbnd","500",37.2345,-80.43553,,,0,,,
78222448-3ff6-434e-aed0-9a28ceb09153,1116,"Litton Reaves Hall","717",37.22247,-80.42347,,,0,,,
2e65a09c-b940-4823-a1f3-96b0b3ecd574,1123,"McComas Hall","727",37.2212,-80.42228,,,0,,,
9aef4d4f-b625-4ac7-8bba-1a27c868f9f9,1124,"Cassell Coliseum","728",37.22313,-80.41948,,,0,,,
a6a1bd5c-049a-432d-8cb4-64410836f456,1125,"Tennis Courts","729",37.22505,-80.41673,,,0,,,
a521815b-2572-47af-b5ac-657e09b049d3,1310,"University City/Toms Creek Wbnd","310",37.24298,-80.42967,,,0,,,
2aa983e7-0a1c-45be-9682-8c569d73d262,1315,"University Mall Sbnd","315",37.23425,-80.43318,,,0,,,
39a9d6e6-1f16-4302-a115-f5399bdd8b03,1311,"Shawnee on University City Wbnd","311",37.24224,-80.43338,,,0,,,
6c233120-9f48-4399-aea1-6f60f2589bef,1312,"Shawnee on University City Sbnd","312",37.24103,-80.43523,,,0,,,
d1eef163-38fb-4013-b1d6-bfda335f8c27,1313,"University City/Broce Sbnd","313",37.23723,-80.43478,,,0,,,
74fb664f-11eb-4386-97e6-fa17a77b2c93,1314,"University City/Glade Sbnd","314",37.23579,-80.43401,,,0,,,
28ab0acd-bc2b-410b-a964-ce93d9a7c7ef,1113,"Squires Wbnd","713",37.22977,-80.4191,,,0,,,
57a30432-f79f-4d23-b3be-0704d9d54541,1209,"Stroubles Cr","233",37.21317,-80.44418,,,0,,,
47af25f8-f664-4d68-b3d9-658644f55a36,1208,"Tall Oaks/Foxtrail Sbnd","232",37.21411,-80.44428,,,0,,,
46b8789d-75ed-44fc-b6ca-21d2f2e09ff2,1210,"Tall Oaks/Foxridge Nbnd","234",37.21413,-80.44428,,,0,,,
4573a103-d8eb-4f1e-a4ed-789618af2f73,1211,"Tall Oaks/Copper Croft Nbnd","235",37.216,-80.44532,,,0,,,
e7c84b04-03f3-475d-8c0b-08543d85f3ec,1118,"Oak Lane North","722",37.22643,-80.43754,,,0,,,
9c800452-ca30-458b-b35d-54cbea13fd3f,1117,"Overflow Lot Wbnd","721",37.22417,-80.43074,,,0,,,
c4e0a698-daa1-44a6-b7ae-609d0fce80c3,1119,"Oak Lane South","723",37.22487,-80.43636,,,0,,,
a31266eb-fd08-485d-8c0e-d9114015dcb6,1120,"Overflow Lot Ebnd","724",37.22409,-80.43082,,,0,,,
17103fb7-5d82-42ea-a0d1-fcd6b5af71f2,1121,"I Lot/Cage Sbnd","725",37.22068,-80.42673,,,0,,,
0d62bbdd-4b87-4f7c-bd29-351e90392c0c,1122,"Food Science Bldg","726",37.22043,-80.42574,,,0,,,
2f4da6bd-5970-49ac-80ee-e2abb15f1c9f,1132,"Life Sciences 1 Bldg","748",37.22048,-80.42543,,,0,,,
136a148b-08b8-4b11-9c17-3f92fa64fffe,1131,"Bioinfomatics Bldg","747",37.22116,-80.42709,,,0,,,
6ae00f49-4a67-4710-a713-77ba67b0dd3f,1130,"Oak Lane Nbnd","745",37.22514,-80.4362,,,0,,,
f09ff942-0339-4906-b7fa-07fba7c344b7,1126,"Harper Hall","732",37.22235,-80.42342,,,0,,,
bc6bc8aa-216f-4912-a0d8-04523bca1483,1109,"Eggleston Hall/Kent St","709",37.22803,-80.41969,,,0,,,
4f7ed9a3-55f0-4f0e-be4a-cfdb30029264,1219,"Heather/Tall Oaks Sbnd","",37.21746,-80.44829,,,0,,,
a6a24b85-b09d-4ed9-b049-0b17f8322035,1220,"Heather/Plymouth Sbnd","",37.21999,-80.44811,,,0,,,
744a71fe-cc59-4d92-8ee6-90b0306fde90,1627,"Main/Lee Nbnd","158",37.22878,-80.41336,,,0,,,
265c4cdd-b896-4a27-8252-45befa5c9605,1628,"Main St Post Office","159",37.22991,-80.41454,,,0,,,
6665246f-5daf-477d-a86c-90e95a04b39d,1112,"Alumni Mall Wbnd","712",37.23134,-80.41656,,,0,,,
c1dc504f-6eca-438f-8bcc-f5b741cda0d4,1623,"Main/Graves Nbnd","153",37.22235,-80.40636,,,0,,,
9efccf85-5c3e-4614-9cd6-6f9842afca68,1625,"Main/Eakin Nbnd","155",37.2251,-80.40937,,,0,,,
e09ffec6-7749-4590-ab1e-7a3b9fbde3e3,1612,"New Kent/Sussex Ebnd","142",37.21147,-80.39368,,,0,,,
efd0a932-547d-4ac1-bcb1-2337d9fc4a1c,1644,"Main/South Park Sbnd","813",37.20017,-80.40034,,,0,,,
8c3c27de-db86-4158-8100-f5138ec3eb5b,1636,"Industrial Park/Transportation Res Ebnd","804",37.1936,-80.40028,,,0,,,
058873d4-b38a-4713-aaf4-2270de1cb02e,1637,"Prosperity/Industrial Park Nbnd","805",37.19422,-80.39758,,,0,,,
545ff6b0-0601-408d-adb6-2000041ebbb8,1610,"Fairfax/New Kent Ebnd","140",37.20898,-80.39606,,,0,,,
2551d034-1efc-4936-bfaa-3c80cfda13e7,1611,"New Kent/Loudon Ebnd","141",37.20996,-80.39565,,,0,,,
5c45c395-4ff1-4a9d-afbb-60f41f03056d,1606,"Main/Faystone Sbnd","134",37.21957,-80.40324,,,0,,,
c8856ead-3acc-43c0-a4b9-c661e3a5d971,1607,"Gables Shopping Center","135",37.2156,-80.40087,,,0,,,
181f43c8-7350-44b2-856a-3f497eea9269,1608,"Main/Landsdowne Sbnd","137",37.2125,-80.39999,,,0,,,
f864ee5c-00d9-4b62-b054-3b57ae1b0437,1642,"Main/S Hill Sbnd","811",37.20723,-80.399,,,0,,,
68755638-95d2-4da8-abd2-a466e8326d32,1111,"Alumni Mall Ebnd","711",37.23119,-80.41642,,,0,,,
ed05d6ea-2217-453a-ba98-49748d85c3f1,1600,"Main/Roanoke Sbnd","127",37.2297,-80.41432,,,0,,,
550fb0fe-8275-4ae7-82b6-cd96c5702559,1601,"Blacksburg Municipal Building","129",37.22761,-80.4121,,,0,,,
ec2873b6-8577-45a0-bff5-c9f2a85f22c4,1626,"Main/Clay Nbnd","156",37.22676,-80.41118,,,0,,,
21979768-cdd9-4fee-91f0-b0031218c91b,1643,"Main/Dowdy Sbnd","812",37.20275,-80.39939,,,0,,,
89b8c2ea-28f7-4d9d-8443-a39f03ba3fb3,1613,"Grissom/Nellies Cave Nbnd","143",37.21268,-80.39346,,,0,,,
0af47f45-5a27-4b0c-9400-bd84d6b64afc,1615,"Marlington/Emerald Wbnd","145",37.21246,-80.39607,,,0,,,
83e0c7f9-4400-4078-91c1-33872821adbf,1616,"Marlington/Grayland Wbnd","146",37.21189,-80.39805,,,0,,,
7631804b-6d6e-48c9-a1eb-619f5a4e2ace,1617,"Marlington/Main Wbnd","147",37.21146,-80.39962,,,0,,,
29877cb8-9ddc-4657-a384-aa9da75d6a0a,1618,"Main/Landsdowne Nbnd","148",37.21333,-80.40007,,,0,,,
d984ba05-d664-4fbe-bd97-8d8f7a6148f6,1619,"Main/Ardmore Nbnd","149",37.21419,-80.40033,,,0,,,
00640a12-48bc-4717-a60b-bd49a06f630a,1620,"Blacksburg Square","150",37.21581,-80.40078,,,0,,,
49857059-14da-4c4c-b08b-469ad3191631,1621,"Main/Cohee Nbnd","151",37.21941,-80.40287,,,0,,,
e0068a1c-9142-42c3-9d31-01aa694845c3,1622,"Main/Sunset Nbnd","152",37.22094,-80.40477,,,0,,,
02d1b82f-c8b6-48ba-819d-3078ca85ce6b,1602,"Main/Eheart Sbnd","130",37.22565,-80.40997,,,0,,,
452cdb0d-3c2b-43b2-b909-eecc87e04657,1603,"Main/Eakin Sbnd","131",37.22478,-80.40902,,,0,,,
f4013a21-af02-4d4a-9b66-ca2f88f00ff5,1635,"Main/Hemlock Sbnd","166",37.22377,-80.40791,,,0,,,
24eb076b-b555-4967-b70c-cf0bc73f8903,1624,"Main/Hemlock Nbnd","154",37.22392,-80.40808,,,0,,,
0e93920a-50ef-429a-94d2-93b72e35f757,1614,"Marlington/Grissom Wbnd","144",37.21307,-80.39413,,,0,,,
6d682137-5cd2-4795-9f7a-2bc8e6ca67e5,1638,"Professional Park Nbnd","806",37.19713,-80.40028,,,0,,,
ce39f578-53a2-4af7-b712-3530917341b5,1639,"Main/Dowdy Nbnd","808",37.20199,-80.39948,,,0,,,
0779a6eb-3366-4a4d-8004-882b3e5d14bc,1640,"Main/S Hill Nbnd","809",37.20697,-80.39883,,,0,,,
2ab81c82-015e-4ae4-82ea-775e0211443c,1604,"Main/Edgewood Sbnd","132",37.22288,-80.40694,,,0,,,
b1556b91-570c-449a-afbe-64c80f307794,1605,"Main/Airport Sbnd","133",37.22218,-80.40617,,,0,,,
44e790b9-b22d-4702-9dcd-d6c609bbfa7e,1110,"Squires Ebnd","710",37.2298,-80.41873,,,0,,,
167cefa8-418f-41fe-a270-1850685b6433,1609,"Fairfax/Ellett Ebnd","139",37.20866,-80.39672,,,0,,,
1121cce1-0518-4912-b1f9-66bfa17506e0,1300,"Toms Creek/Winston Nbnd","300",37.2348,-80.42588,,,0,,,
b6cacdd8-4e30-4f03-8127-1789ae4e23cd,1301,"Gilbert Linkous Nbnd","301",37.23656,-80.42683,,,0,,,
2c996162-f473-44ef-90bc-ac79a0c9c7bc,1302,"Toms Creek/Watson Nbnd","302",37.23803,-80.4266,,,0,,,
3f4f84cd-f3c9-40e6-bec0-56706c502ab1,1303,"Toms Creek/McBryde Nbnd","303",37.24026,-80.42714,,,0,,,
6d0de43b-0c99-40be-afff-f96d8e34fc34,1337,"Toms Creek/Hunt Club Nbnd","",37.24208,-80.42768,,,0,,,
8dde0c5b-d2cc-43e3-b2d7-429d0a84df38,1505,"Harding/Cork Ebnd","205",37.23663,-80.40758,,,0,,,
6bfe1d79-7e58-4036-8b54-6a076a67d26d,1506,"Harding/Patrick Henry Ebnd","206",37.23777,-80.40588,,,0,,,
acad109d-891a-404f-a12a-2b062cb6d827,1507,"Harding/Apperson Ebnd","207",37.23857,-80.40427,,,0,,,
e481c08c-eb77-4ea9-875a-57a3e8faa560,1508,"Harding/Vista Ebnd","208",37.23922,-80.40298,,,0,,,
9f9cf7e4-6fd8-4acf-9cbf-55ed89a529c5,1500,"Roanoke/Church Ebnd","200",37.23016,-80.41273,,,0,,,
086b3cee-8b30-4ec3-b2b0-92bf2c07e97a,1501,"Roanoke/Wharton Ebnd","201",37.23125,-80.4111,,,0,,,
6ac9d440-ec08-4249-aa90-eb7425ce3999,1511,"Ascot/Hampton","211",37.23924,-80.39818,,,0,,,
8220a5ef-b259-425d-bc0f-1a2c9a82f7e1,1521,"Roanoke/Penn Wbnd","222",37.23039,-80.41238,,,0,,,
f8b57f9b-1b4c-451d-8b27-f34016f50c97,1502,"Roanoke/Rutledge Ebnd","202",37.23181,-80.41026,,,0,,,
8301c2cc-150f-4360-83e2-5419e1078720,1503,"Roanoke/Woolwine Ebnd","203",37.23269,-80.40897,,,0,,,
eb87f54c-0322-4344-86e6-2b1ac5a58a47,1509,"Harding/Roanoke Ebnd","209",37.24044,-80.40053,,,0,,,
fb534219-2b06-4bf6-a7df-739ce2b70a9a,1510,"Ascot/Harding Ebnd","210",37.24146,-80.399,,,0,,,
baaed554-410c-4164-b6d1-1949b5358b7f,1513,"Harding/Rucker Wbnd","213",37.24041,-80.40059,,,0,,,
83e6bed4-2f98-44c1-bbd2-fe92a38cd38d,1514,"Harding/Sutton Wbnd","214",37.23919,-80.40305,,,0,,,
7d6a29c1-b8bf-48e4-a16e-6a724cd69c1f,1515,"Harding/Apperson Wbnd","215",37.23848,-80.40446,,,0,,,
82bdffec-462f-4848-bfcd-04a045d5649d,1516,"Harding/Patrick Henry Wbnd","216",37.23772,-80.40599,,,0,,,
d3fbc855-375a-4137-b700-df8f3627028d,1517,"Harding/Cork Wbnd","218",37.2358,-80.4083,,,0,,,
8bd6ae97-96f0-4f20-a8ad-71d5f3bbd65f,1518,"Roanoke/Woolwine Wbnd","219",37.23255,-80.40917,,,0,,,
2963d344-6b86-4fda-99a0-c007e942d9f2,1519,"Roanoke/Rutledge Wbnd","220",37.23177,-80.41032,,,0,,,
26876821-310e-4f10-a6c9-0af6d204e79f,1520,"Roanoke/Wharton Wbnd","221",37.23114,-80.41126,,,0,,,
dcf13528-deca-4cce-a30b-bb85dc7cbd65,1504,"Harding/Owens Ebnd","204",37.23549,-80.40858,,,0,,,
4d932452-7f92-4499-be18-a852c89355f5,1512,"Ascot/Harding Wbnd","212",37.24146,-80.39902,,,0,,,
e4a49c76-4c46-4fd8-a3bb-a6a95b95e2b2,1411,"Main/Red Maple Nbnd","112",37.25313,-80.41092,,,0,,,
19d9ccf1-82fa-4578-9032-e4717eea5801,9004,"Red Maple/October Glory","",37.25424,-80.40937,,,0,,,
2ed2070e-5d5e-4f1d-a1d3-38f7ef31ffa9,1414,"Pheasant Run","117",37.24905,-80.41699,,,0,,,
de5718f0-e1bc-4725-b73a-bee43172c017,1415,"Seneca/Patrick Henry Sbnd","118",37.24742,-80.41756,,,0,,,
2c7f837e-5275-4188-ba2d-551f665044e1,1416,"Main/Patrick Henry Sbnd","119",37.24598,-80.41511,,,0,,,
638424b6-f387-48f1-9f6f-ff4253cb0f54,1418,"Main/Northview Sbnd","121",37.24153,-80.41831,,,0,,,
df60fcbb-b47d-4a5f-9582-7bf54ab87666,1419,"Main/Lucas Sbnd","122",37.24016,-80.41929,,,0,,,
c48b34f3-973a-486a-878e-b52f647ece9f,1429,"1500 North Main Sbnd","172",37.2495,-80.41262,,,0,,,
1d582431-4e6a-42d3-9147-9227c76a1ae0,1420,"Main/Montgomery Sbnd","123",37.23891,-80.42007,,,0,,,
a2571776-2bfe-4ea4-bd40-5c5538c6dd4e,1421,"Main/Kabrich Sbnd","124",37.236,-80.42107,,,0,,,
e1522135-c8ba-4d14-a8e6-b36b5d25966e,1422,"Main/Collegiate Ct Sbnd","125",37.2343,-80.41953,,,0,,,
fd9dae9a-d5d7-49b6-bfdc-8d376308f41e,1423,"Main/Turner Sbnd","126",37.23323,-80.41813,,,0,,,
597fc811-c35e-49ce-b7d8-a58619b2315b,1430,"Patrick Henry/Seneca Wbnd","901",37.24693,-80.4169,,,0,,,
99f684d5-ecc3-4ce5-bd11-f147b6052bbf,1403,"Lucas/Giles Ebnd","103",37.2393,-80.41671,,,0,,,
5246ec10-174e-4caa-bb89-e31bcf397159,1404,"Giles/Northview Nbnd","104",37.24095,-80.41624,,,0,,,
73757e0a-1f63-4575-9c66-4c11bf03fbb4,1405,"Giles/Heights Nbnd","105",37.2429,-80.41447,,,0,,,
395b778c-5d74-4335-a62d-cc5b0925649f,1406,"Giles/Patrick Henry Nbnd","106",37.24497,-80.41223,,,0,,,
a02398c1-0688-42d0-9fdf-fb7d676be5ac,1431,"Main/Turner Nbnd","",37.23394,-80.41904,,,0,,,
7253b06b-07a4-4c2e-8789-e03975dccaca,1400,"Main/Montgomery Nbnd","100",37.23806,-80.42051,,,0,,,
6c325553-4db9-48b7-92dc-5f86478b4302,1401,"Main/Lucas Nbnd S","101",37.23912,-80.41995,,,0,,,
6674f7a2-3d01-4c9f-b4bd-17ff6e471178,1402,"Lucas/Main Ebnd","102",37.23966,-80.41841,,,0,,,
a0c08f92-ed60-4f59-aae5-9c2d6093a446,1407,"Patrick Henry/Giles Wbnd","107",37.24532,-80.41287,,,0,,,
0c59ac45-c194-40e1-985e-2008a469da8e,1408,"Patrick Henry/Main Wbnd","108",37.24607,-80.41435,,,0,,,
04f69498-1f05-416f-955f-f1286b507c02,1409,"1500 North Main Nbnd","110",37.2491,-80.41291,,,0,,,
431d1487-0241-4c6f-a0e8-2f920516d7a8,1410,"Main/Giles Nbnd","111",37.25099,-80.4116,,,0,,,
e098b0c6-95f1-48fc-ba3a-bec9b8ee891a,1417,"1200 North Main Sbnd","120",37.24327,-80.4171,,,0,,,
51219c9f-d58a-4840-9c31-5d126b4f9215,9003,"Main/Whipple Sbnd","",37.25085,-80.41171,,,0,,,
0d2e409b-4cb5-4f68-ac55-469290a35d6e,1710,"Kraft/Research Ctr Ebnd","800",37.19897,-80.40543,,,0,,,
67e4ca87-462a-4dbb-a6b5-1e22ed958de5,1714,"Kraft/Knowledgeworks 1 Bldg Sbnd","822",37.20018,-80.40786,,,0,,,
bc3c1580-79a7-48b9-80e1-683c674e96c1,1701,"Pratt Dr/Garvin Bldg Sbnd","735",37.20168,-80.41176,,,0,,,
2222092a-9fc9-42cd-a9cf-8eb4944c2fd0,1129,"Coliseum Parking Lot Sbnd","742",37.22221,-80.41988,,,0,,,
fda196f8-3857-4d5d-ac07-ecefff7ca7b1,1127,"Lane Stadium S Endzone Sbnd","733",37.21847,-80.41929,,,0,,,
c63dee63-54d7-4b24-acc1-f61eeca23c1c,1700,"Rec Fields Sbnd","734",37.21483,-80.41841,,,0,,,
d33774ee-f7ae-4ea3-96f9-b3992ba21c4e,1702,"Pratt/Kraft Ebnd","736",37.20109,-80.41074,,,0,,,
acf28473-6a73-45e4-ae6c-e37073c97587,1705,"Pratt Dr/Andrews Bldg Sbnd","746",37.204,-80.41244,,,0,,,
96de73cc-6ca4-4ba8-88c2-073f26d36fa2,1340,"Progress/Watson Sbnd","",37.23892,-80.4221,,,0,,,
1ae0f160-5e71-4f47-8e2a-fed0a5b0c179,1320,"Shawnee on University City Ebnd","404",37.24234,-80.43291,,,0,,,
59bc5199-95ef-42f8-87e9-74e759891653,1321,"University City/Falcon Ebnd","405",37.24274,-80.43064,,,0,,,
da7849c4-bb52-483d-a848-4610c6545561,1322,"University City/Toms Creek Ebnd","406",37.243,-80.42957,,,0,,,
687a424a-d9e2-4e1e-8ba6-85b150ca0151,1317,"University City/Glade Nbnd","401",37.23629,-80.43427,,,0,,,
8f07c060-311e-4cfb-904d-5c313f09d5e0,1318,"University City/Broce Nbnd","402",37.23792,-80.43517,,,0,,,
69177a3f-9a6d-406d-bebe-b834f2dd832a,1324,"The Village on Patrick Henry Ebnd","408",37.24511,-80.42473,,,0,,,
1b306367-c374-4313-8656-dd0946c35029,1316,"University Mall Nbnd","400",37.2346,-80.43336,,,0,,,
2cfeba3f-0935-448c-be97-00d9f5844c33,1325,"Patrick Henry/Progress Ebnd","409",37.24579,-80.42284,,,0,,,
d34414ec-c659-46b4-87ae-aace2122808c,1326,"Progress/Hunt Club Sbnd","410",37.24487,-80.42144,,,0,,,
3be0ccb7-5e6c-4dea-88cd-ff58bc99428e,1327,"Progress/University Terr Sbnd","411",37.2435,-80.42187,,,0,,,
f8decfad-0526-4b66-86af-836fb98bbbc2,1328,"Progress/Broce Sbnd","412",37.24234,-80.42226,,,0,,,
8408eb6d-352f-44d6-beab-44c0690d6dd8,1319,"Shawnee on University City Nbnd","403",37.2414,-80.43498,,,0,,,
379f938a-d516-4a2c-b57d-d0478a27187b,1323,"Patrick Henry/Toms Creek Ebnd","407",37.24405,-80.42759,,,0,,,
97b36c8a-37fa-4384-b20d-ff2fba94ac0e,1706,"Kraft/Tech Center Dr Sbnd","760",37.20427,-80.40992,,,0,,,
089d6b22-dc83-4ee6-98d6-6642954568b1,1715,"Kraft/Moss Bldg Sbnd","823",37.20186,-80.40981,,,0,,,
9a765408-4ef7-45e0-a58b-47e9392ba8ed,1707,"Pratt/Kraft Wbnd","761",37.20114,-80.41065,,,0,,,
7cb77ae6-bac6-4299-843a-43034b3071a5,1708,"Pratt Dr/Garvin Bldg Nbnd","762",37.2017,-80.41171,,,0,,,
11708d7c-8782-4395-ae97-9af452075428,1709,"Pratt Dr/Andrews Bldg Nbnd","763",37.20369,-80.41241,,,0,,,
509ac9d0-8295-4b62-b44e-86be37630c7f,1128,"Lane Stadium S Endzone Nbnd","741",37.21852,-80.41926,,,0,,,
dd25419b-ebb0-4097-a8b4-31e1bc926468,1716,"Research Ctr/S Knollwood Nbnd","824",37.19998,-80.40532,,,0,,,
a67af48a-24f2-4944-8b48-3768a37a3b97,1713,"Research Ctr/N Knollwood Nbnd","817",37.20264,-80.40584,,,0,,,
059dc1e4-a3b7-40ed-9c0c-d0b6b8aa51ed,1703,"Airport","737",37.20528,-80.40851,,,0,,,
39451bbb-cd27-4a5f-b850-e3c2d5a8bd0e,1704,"Rec Fields Nbnd","740",37.21574,-80.41868,,,0,,,
96190a97-79f5-4cf8-b61f-fb7c03eb08be,1412,"Givens/Main Wbnd","113",37.25608,-80.41147,,,0,,,
4e65d911-4cf4-42b3-98e1-a05e9ede4aa7,1424,"Main/Lucas Nbnd N","167",37.2403,-80.41919,,,0,,,
6e192e6d-cbf2-46ab-af27-ee45430c30f7,1425,"Main/Northview Nbnd","168",37.24192,-80.41804,,,0,,,
00176e1f-b868-4163-84f6-2570b182977d,1426,"1200 North Main Nbnd","169",37.24327,-80.41707,,,0,,,
f9bcd4b5-83b7-4d00-98c6-e0e1cfd10992,1427,"Main/Patrick Henry Nbnd","170",37.24598,-80.41511,,,0,,,
9ceb64fe-56c4-4959-be15-0a802726d2a5,1803,"LewisGale Hospital Montgomery","802",37.18746,-80.4105,,,0,,,
30e108a6-4e2a-4acd-96c4-a66277d88c48,1433,"Patrick Henry/Mary Jane Ebnd West","",37.24677,-80.41946,,,0,,,
e408bfe3-c384-4c43-a1c9-e84de504fe77,1434,"Patrick Henry/Seneca Ebnd","",37.24692,-80.41652,,,0,,,
3ac019ac-dbad-41ed-921b-673e9409c61a,1641,"Fairfax Circle","",37.20752,-80.39388,,,0,,,
e5da9754-3d24-45cd-9a0f-471c06a3393e,1634,"Fairfax/Ellett Wbnd","165",37.20869,-80.39674,,,0,,,
592b96a7-b471-40d3-ade7-8428bbc28236,1711,"Research Ctr/Rimrock Sbnd","",37.19608,-80.40395,,,0,,,
b8b1012b-fe61-40e9-a6ca-f938d0476e03,1645,"Professional Park Sbnd","818",37.19679,-80.40028,,,0,,,
f6ae1c85-50e1-46ba-915e-3343efec47eb,1646,"Prosperity/Industrial Park Sbnd","",37.19422,-80.3977,,,0,,,
dbecc34c-416c-4cec-9981-aea1968c31b2,1647,"Industrial Park/Transportation Res Wbnd","",37.1937,-80.40028,,,0,,,
5e9a6786-2754-4ed9-8872-60eda3f4c692,1712,"Research Ctr/Rimrock Nbnd","",37.19611,-80.40394,,,0,,,
67110919-9058-4221-b089-806992a0fd33,1802,"Wal Mart","601",37.16172,-80.42583,,,0,,,
d2a73e9c-f1a8-4ed2-b48e-7206cfd3dcca,2209,"Shoppers Way","",37.16668,-80.42521,,,0,,,
d83c3cee-4728-4848-88a4-c61f318542e7,1801,"NRV Theatre","616",37.1642,-80.4291,,,0,,,
90d2ac4a-4857-4373-8fd7-a6103d59e15e,1800,"New River Valley Mall","611",37.1661,-80.42853,,,0,,,
c73102f1-6414-42e6-baaf-a41d477ca7c3,2202,"Laurel/Sycamore","",37.16236,-80.42093,,,0,,,
5567ef54-fa28-4f59-8db7-b175190da8a7,2203,"Laurel/Peppers Ferry","",37.1641,-80.41985,,,0,,,
474b5110-0a7d-4405-b934-8cc65c79ab42,2204,"DMV on Arbor","",37.1653,-80.41796,,,0,,,
63e92782-94c2-448e-aff3-797457c2b192,2205,"Post Office on Arbor","",37.16759,-80.4175,,,0,,,
e548e4e6-913f-4535-b7fd-9117b4858244,2206,"Arbor/Market","",37.1688,-80.4196,,,0,,,
f7186723-189c-4a59-8c8d-4d8e06aa4385,1631,"Grissom/Nellies Cave Sbnd","162",37.21243,-80.39336,,,0,,,
5634561e-cc67-4f81-a0c9-087293f40bd4,1633,"New Kent/Loudon Wbnd","164",37.20974,-80.3957,,,0,,,
15af91c8-4cd4-412f-97f7-4da917a1ce9e,1629,"Marlington/Grayland Ebnd","160",37.21186,-80.39817,,,0,,,
e6afd65e-58dc-4391-afdf-cda7e6603a03,1630,"Marlington/Emerald Ebnd","161",37.2124,-80.39629,,,0,,,
a825b4e6-589d-4eda-a507-8157f2c1fbcd,1632,"New Kent/Sussex Wbnd","163",37.21144,-80.39375,,,0,,,
32fd593d-e844-4748-906c-0e3a99342f70,2203,"Laurel/Peppers Ferry Nbnd","",37.16405,-80.41979,,,0,,,
378570d6-37fe-4458-808f-b0e09b296922,1801,"NRV Theatre","",37.1642,-80.4291,,,0,,,
a0a1b606-f61e-4c52-8218-295efbd32e98,1800,"New River Valley Mall","",37.1661,-80.4285,,,0,,,
a5934db8-68dd-4a26-b225-e47f9700cac3,2120,"Christiansburg Town Hall","",37.13055,-80.40794,,,0,,,
2d67b54c-131d-48b9-8e81-7beb50fd5c77,2118,"Roanoke/Craig Wbnd","",37.13042,-80.39727,,,0,,,
0d636864-9f73-4355-b4a2-31a77d515e50,2119,"Roanoke/Evans Wbnd","",37.13017,-80.40267,,,0,,,
992edb28-e027-42af-a69a-edb07874822e,2114,"Electric Way/Hubbell Wbnd","",37.13721,-80.37286,,,0,,,
d4351617-7821-4ae4-8814-82735f69f5f4,2117,"Roanoke/East Wbnd","",37.13151,-80.39311,,,0,,,
d1711694-a1ef-4454-87ae-409b3c245937,2200,"Conston/Spradlin Farm Wbnd","",37.15826,-80.42316,,,0,,,
d3b19336-a163-42ab-ad77-cff8a9b2f8a8,2303,"North Franklin/Cambria Nbnd","",37.15116,-80.4145,,,0,,,
8ebebe29-08d0-4f69-8714-3884f21fc033,2116,"Roanoke/Hungate Wbnd","",37.13422,-80.38493,,,0,,,
8ce65506-bc6a-42df-a4eb-46c9e84b0503,2113,"Simmons/Hammes Nbnd","",37.13639,-80.37,,,0,,,
cd78968f-51d8-4e84-870a-819aeac00c9c,2105,"Aquatic Center","",37.13838,-80.41251,,,0,,,
05f530df-23a3-4d40-821a-68d76cfac357,2201,"Farmview/Ridinger Ebnd","",37.15646,-80.42125,,,0,,,
352147c0-40f3-4f9b-8ab1-4c9d76db224a,2115,"Falling Branch Park and Ride","",37.12683,-80.37051,,,0,,,
e08811d6-6816-4002-a3db-8a3568af41bf,1802,"Wal Mart","",37.1616,-80.426,,,0,,,
12c600d3-c84c-4996-b350-852fafcd8859,2209,"Shoppers Way Wbnd","",37.16668,-80.42521,,,0,,,
2038a761-e77d-4053-9d23-0d0aebb2a1c7,2301,"North Franklin/Wades Nbnd","",37.13651,-80.4138,,,0,,,
63865a53-17cc-49d3-a4eb-392e710a2749,2204,"DMV on Arbor Nbnd","",37.1653,-80.41796,,,0,,,
2ac14b53-9d5b-4a36-901b-064420132370,2205,"Post Office on Arbor Nbnd","",37.16759,-80.41745,,,0,,,
e9fdfa41-012b-4bac-b5f3-e8fd4be6c9b5,2202,"Laurel/Sycamore Wbnd","",37.16236,-80.42093,,,0,,,
2f9bef04-10cb-43ce-a5b6-a78063bc7a64,2206,"Arbor/Market Wbnd","",37.16882,-80.41959,,,0,,,
15e9e576-5924-41dc-80de-10e2be6784db,1100,"Newman Library","",37.22854,-80.41976,,,0,,,
93779bcf-4531-4733-8ffb-ca69720bf3d3,1218,"Prices Fork/Old Glade Ebnd","",37.23142,-80.43441,,,0,,,
646a0633-b221-4a44-946e-03b67ab3fc5b,2224,"Somerset/Majestic Ebnd","",37.16006,-80.43514,,,0,,,
504732a9-6cbc-4d3d-9ab5-0c9f5f18ceb8,1710,"Kraft/Research Ctr Ebnd","",37.19896,-80.40543,,,0,,,
17fce227-cd10-4e53-9cf9-031435230234,1116,"Litton Reaves Hall","",37.22247,-80.42348,,,0,,,
f4fa4f27-e9fd-48ca-89bd-5e7369cf6d31,1700,"Rec Fields Sbnd","",37.21484,-80.41835,,,0,,,
6a168a82-848b-4fec-a959-fbdd4e3b2c9b,1705,"Pratt Dr/Andrews Bldg Sbnd","",37.204,-80.41244,,,0,,,
dc22d556-8931-4c7f-85b5-6b229203bb4c,1702,"Pratt/Kraft Ebnd","",37.20109,-80.41074,,,0,,,
8a69d3ff-a7eb-4f81-9086-f4a7a676dacb,1115,"Wright House","",37.22675,-80.42573,,,0,,,
9eb7b937-4966-4c10-96bc-16c84c64cf99,1107,"Hutcheson","",37.22598,-80.42287,,,0,,,
da1bbb6b-46e2-424f-95ff-fa4db8e7256a,1101,"Burruss Hall","",37.22849,-80.42284,,,0,,,
ce02e5ed-c600-4783-83ab-82f703539e74,2222,"Gibson/Nancy Wbnd","",37.15467,-80.43059,,,0,,,
37af5b82-358f-412f-9f1d-ef11ef4ec120,2223,"Berkshire/Windsor Nbnd","",37.1543,-80.4325,,,0,,,
931f9bb0-3c6c-4ac7-86f7-c5587057926e,2215,"Sequoia Circle/New Village Wbnd","",37.16959,-80.44435,,,0,,,
7a26f11a-d7f9-4e60-8de8-75b654363622,2213,"Meadow/Walters Wbnd","",37.16902,-80.44061,,,0,,,
e42e94fc-a98c-4246-8438-7696177d6623,2214,"400 Walters Wbnd","",37.16663,-80.4418,,,0,,,
01f23811-0759-476f-b1fd-252f4f91ee06,2219,"Sleepy Hollow/Tarrytown Sbnd","",37.15075,-80.42818,,,0,,,
b68421f9-95cf-4de0-a24a-edbf7c913b66,2220,"Providence/Cambria Nbnd","",37.1513,-80.42418,,,0,,,
c01c7256-d65a-45d3-82e6-954a60fa71f3,2221,"Cambria/Henley Wbnd","",37.15229,-80.42844,,,0,,,
f1c8208d-0091-4cfc-a005-b3ebf8016a10,2218,"Berkshire/Gibson Sbnd","",37.15378,-80.43159,,,0,,,
4be9c676-fc0f-4a79-96f0-9e91287bd495,2216,"New Village/Tula Circle Sbnd","",37.16584,-80.44585,,,0,,,
c8e44756-38cd-4e97-a079-aa41896a22c8,2217,"Majestic/Kays Dr Sbnd","",37.15861,-80.43491,,,0,,,
75473541-6105-4b21-92af-67af7abae7ab,2211,"Stafford/Quinn W Stewart Blvd Nbnd","",37.16571,-80.43604,,,0,,,
5006903c-a613-4473-8cf4-f79c8432f867,2212,"Meadow/Stafford Wbnd","",37.16891,-80.43747,,,0,,,
2966aa55-ad3c-4ece-ba0b-38c5b8a145f6,2225,"Crescent/Walnut Ebnd","",37.16176,-80.44459,,,0,,,
a4cb73f7-6970-4778-a7b4-7fc06350df38,2100,"Montgomery County Govt Center","",37.13143,-80.39332,,,0,,,
3f6b5415-5f68-485d-9e40-197ad4219149,2101,"Republic/Salem Nbnd","",37.1372,-80.3962,,,0,,,
e16acd6e-8953-4333-9684-8b41d0c3f07d,2104,"Depot/Cambria Wbnd","",37.14126,-80.40401,,,0,,,
1a8468e7-7c4c-4898-a0ea-232868466fd1,2112,"Recreation Center","",37.15034,-80.41492,,,0,,,
9f810ad7-c629-4ff9-9863-414a81ca0546,2108,"Depot/New Wbnd","",37.13081,-80.41461,,,0,,,
f941a6ab-543c-43cf-88aa-e43105a55587,2111,"Roanoke/Evans Ebnd","",37.13015,-80.40209,,,0,,,
4cb37511-395a-44f6-a340-f87c7ab59f7d,2131,"Roanoke/Roberts Ebnd","",37.13038,-80.39774,,,0,,,
19cd4249-5d94-468f-a48b-36a7daddee7d,2302,"North Franklin/Wades Sbnd","",37.13633,-80.41396,,,0,,,
7885558d-5764-4912-bc5c-609eb5f9d1fa,2109,"W Main/Dunkley Ebnd","",37.1283,-80.4106,,,0,,,
394353ac-4e96-421d-81e5-2f5f360b50b6,2110,"Montgomery County Courthouse","",37.13073,-80.40774,,,0,,,
bc8fcd38-0977-4c56-a77f-746eb8ac19d0,2144,"Hickory/W. Main Sbnd","",37.12244,-80.41732,,,0,,,
f570bc2a-2af2-48c2-9203-f7989cbad0e6,2128,"Oak Tree/Patricks Way Wbnd","",37.14846,-80.4163,,,0,,,
9de8fd02-0b6e-4742-8748-bd8e747e1fa9,2151,"Oaktree/Providence Way Wbnd","",37.14774,-80.42318,,,0,,,
55c2ce69-10cc-4316-b503-68134671b392,2129,"Oak Tree/Gold Leaf Wbnd","",37.1468,-80.42503,,,0,,,
dbbd323a-2be5-494d-b50c-f90c29362e82,2130,"Independence/Freedom Ebnd","",37.14428,-80.42385,,,0,,,
9d66e486-b069-4bab-921a-4be9c11367b5,2150,"Wades/N. Franklin Wbnd","",37.13611,-80.41436,,,0,,,
91f30f72-05c3-48b3-a53e-b5c67a850765,2148,"Clearview/Kamran Sbnd","",37.13274,-80.42048,,,0,,,
839b3aa0-d498-48c4-8d30-b81abe7f1593,2146,"Clearview/Williams Sbnd","",37.12992,-80.41947,,,0,,,
639db24d-3ccb-4ca1-8f94-d9dbbcbb182b,2132,"Northgate Plaza/Cambria","",37.15199,-80.41263,,,0,,,
7939bd2f-dada-4ef7-b231-1bbbce8ee087,1626,"Main/Clay Nbnd","",37.22676,-80.41118,,,0,,,
69d0fcfa-ba0f-4d3d-9462-06d11a78307c,2142,"Hickory/2nd Wbnd","",37.12055,-80.41518,,,0,,,
18f96df6-28cf-4468-b008-77be1fc97fa3,2140,"Carson/Mountainview Ebnd","",37.11918,-80.41359,,,0,,,
0da37247-c16d-4ce9-bc17-b637bd2adbd0,2138,"Highview/Mountainview Nbnd","",37.12224,-80.41146,,,0,,,
8de6196e-abb0-4e88-b8fe-e0af7d4c0f85,1113,"Squires Wbnd","",37.22977,-80.4191,,,0,,,
87ea025e-2bb7-4d0c-8bca-a3c397c36e25,1103,"West Campus/Perry Nbnd","",37.2289,-80.42745,,,0,,,
2b35093d-b4a4-4d76-a91e-d11dec2d0b9e,1200,"Prices Fork/Old Glade Wbnd","",37.23149,-80.43459,,,0,,,
74efb5b9-aa3e-4c14-b7d5-d117dceb6b40,2121,"Gateway Plaza North","",37.13368,-80.37846,,,0,,,
4486c32f-4d7c-4ff8-b70c-3b0c2ba78f24,2136,"Phlegar/2nd Nbnd","",37.12501,-80.40947,,,0,,,
c651c50c-7c4d-4dff-9451-06275373a49a,2134,"1st/Hickok Ebnd","",37.12799,-80.40902,,,0,,,
458f9594-cce2-4b2e-be14-f5f67715d133,2137,"Highview/Mountainview Sbnd","",37.12221,-80.41148,,,0,,,
214707f1-a239-449c-84df-94811d90cbe3,2139,"Carson/Mountainview Wbnd","",37.11915,-80.41357,,,0,,,
fbcc14d7-e4b7-483f-a2ca-60c5df5c420f,2141,"Hickory/2nd Ebnd","",37.12057,-80.41516,,,0,,,
15e2a9f5-c18c-48c7-aa89-6570b39116a8,2143,"Hickory/W. Main Nbnd","",37.12245,-80.4173,,,0,,,
6203e72c-13ef-4655-9e00-cc0f9e55ba5e,2145,"Clearview/Williams Nbnd","",37.12993,-80.41943,,,0,,,
e69f1718-a603-4f37-860b-368c8bba34e7,2133,"1st/Hickok Wbnd","",37.12797,-80.40903,,,0,,,
17fdee67-007f-41c4-9e37-a0a2d461d323,2135,"Phlegar/2nd Sbnd","",37.125,-80.40952,,,0,,,
909a25d5-8093-454e-94ef-10bf3bfe6de8,1601,"Blacksburg Municipal Building","",37.22761,-80.4121,,,0,,,
f76f7e0f-d8cb-4695-af7a-c34f5c060281,2147,"Clearview/Kamran Nbnd","",37.13276,-80.42046,,,0,,,
e0c7d8ed-e39e-44e0-bbe4-2fecb5fac2f4,2149,"Wades/N. Franklin Ebnd","",37.13612,-80.41433,,,0,,,
f433f6ad-e7b9-4639-8403-2bd5f1f270f3,2137,"Highview/Mountainview Sbnd","",37.12221,-80.41148,,,0,,,
5579fae5-0138-4ba8-ad59-5bf671c0e6ec,2139,"Carson/Mountainview Wbnd","",37.11915,-80.41357,,,0,,,
a44bf165-6b58-4e4b-9888-8168d62d29f9,2141,"Hickory/2nd Ebnd","",37.12057,-80.41516,,,0,,,
178a0e8b-e12d-427a-9416-2d2bd27745ed,2143,"Hickory/W. Main Nbnd","",37.12245,-80.4173,,,0,,,
8d423e57-213e-44f5-bef5-c6a04b71a9be,2145,"Clearview/Williams Nbnd","",37.12993,-80.41943,,,0,,,
a843f7f7-feb0-45e9-96f0-1d7e44793547,2128,"Oak Tree/Patricks Way Wbnd","",37.14846,-80.4163,,,0,,,
908fee56-576c-41b3-b775-19f476aef1b2,2151,"Oaktree/Providence Way Wbnd","",37.14774,-80.42318,,,0,,,
bb5c8b1b-3200-4dcc-9d9f-b415f203b349,2129,"Oak Tree/Gold Leaf Wbnd","",37.1468,-80.42503,,,0,,,
b3224630-b95a-4c2d-b57d-7933cf841443,2130,"Independence/Freedom Ebnd","",37.14428,-80.42385,,,0,,,
8fa63999-f64a-46c1-8c4e-8ad207434392,1115,"Wright House","",37.22675,-80.42573,,,0,,,
e3628df3-31d5-4ae5-8d1a-5f9fd2496f75,1116,"Litton Reaves Hall","",37.22247,-80.42348,,,0,,,
3cc5615c-4b1a-42c2-af07-d15b2eb47d0f,1107,"Hutcheson","",37.22598,-80.42287,,,0,,,
d5411c4a-9697-4220-943f-ac47c2709e72,1100,"Newman Library","",37.22854,-80.41976,,,0,,,
0cc7648a-6480-4255-838b-d006a9ad2125,1218,"Prices Fork/Old Glade Ebnd","",37.23142,-80.43441,,,0,,,
75150c70-e4e4-4e8b-a45d-0e8755721075,2121,"Gateway Plaza North","",37.13368,-80.37846,,,0,,,
85a7862b-2092-486c-8eb1-568ef91e1d6f,2117,"Roanoke/East Wbnd","",37.13151,-80.39311,,,0,,,
5b2fc9ea-96a9-4107-ab5f-de6da015746c,2118,"Roanoke/Craig Wbnd","",37.13042,-80.39727,,,0,,,
317f9638-ecd3-4356-965c-d9beb89475c9,2120,"Christiansburg Town Hall","",37.13055,-80.40794,,,0,,,
cb62a3cb-c4b4-4479-8422-f28ab018cb85,2133,"1st/Hickok Wbnd","",37.12797,-80.40903,,,0,,,
55e3c56d-4ed8-4850-8c2f-7b3bcdc885e0,2135,"Phlegar/2nd Sbnd","",37.125,-80.40952,,,0,,,
f60dba55-450e-489d-aaf1-f13327fa3c6d,2114,"Electric Way/Hubbell Wbnd","",37.13721,-80.37286,,,0,,,
ad0418f1-e5ce-431c-be9a-f2e7cd12a9c6,1601,"Blacksburg Municipal Building","",37.22761,-80.4121,,,0,,,
402f61d1-8b48-40e3-b870-ecc7f3087190,2132,"Northgate Plaza/Cambria","",37.15199,-80.41263,,,0,,,
c3e8808a-0920-442b-970f-291b7176d83e,2147,"Clearview/Kamran Nbnd","",37.13276,-80.42046,,,0,,,
3dc19cee-8067-4d09-bcce-21ba6dd41b35,2149,"Wades/N. Franklin Ebnd","",37.13612,-80.41433,,,0,,,
7d40eb84-771c-46e7-a7a2-50c33aabb09a,2204,"DMV on Arbor Nbnd","",37.1653,-80.41796,,,0,,,
5fa151bc-5795-440b-a8ce-204f26fc2818,2205,"Post Office on Arbor Nbnd","",37.16759,-80.41745,,,0,,,
73662e77-fcb7-4204-81d3-f49231106c4b,1800,"New River Valley Mall","",37.1661,-80.4285,,,0,,,
cb5b0974-5cb7-43bf-a6fd-a42fec20af7b,2116,"Roanoke/Hungate Wbnd","",37.13422,-80.38493,,,0,,,
b8849bfe-4a9c-49a6-979b-9d54367863cc,2119,"Roanoke/Evans Wbnd","",37.13017,-80.40267,,,0,,,
6f7f183a-d307-43f9-a0c6-f4f872c0a02a,2209,"Shoppers Way Wbnd","",37.16668,-80.42521,,,0,,,
01b86256-a368-436b-9eea-3ba4725e5b98,2200,"Conston/Spradlin Farm Wbnd","",37.15826,-80.42316,,,0,,,
15b8ef83-301d-46b6-97ec-d8172ea51f1a,1802,"Wal Mart","",37.1616,-80.426,,,0,,,
e3322603-bfbe-4185-adde-3ba0876b4b01,2201,"Farmview/Ridinger Ebnd","",37.15646,-80.42125,,,0,,,
a5b5cfe9-9537-4a43-89fb-b3226702a51e,2303,"North Franklin/Cambria Nbnd","",37.15116,-80.4145,,,0,,,
5c4f6321-ca81-47f3-b8f8-16e03ee0cc52,2203,"Laurel/Peppers Ferry Nbnd","",37.16405,-80.41979,,,0,,,
31f8f45e-9460-462b-95b0-5144b51b8983,2113,"Simmons/Hammes Nbnd","",37.13639,-80.37,,,0,,,
306a7ee6-a77e-4dbc-83a1-2da5acb24ce3,1801,"NRV Theatre","",37.1642,-80.4291,,,0,,,
7438145e-82fc-4d00-a65c-1351c569b44b,2115,"Falling Branch Park and Ride","",37.12683,-80.37051,,,0,,,
026fb944-2f34-44d1-bed9-a238278fd6ad,2105,"Aquatic Center","",37.13838,-80.41251,,,0,,,
41595f3c-a9e3-4a46-820d-55de3214fb57,2202,"Laurel/Sycamore Wbnd","",37.16236,-80.42093,,,0,,,
970cffe3-bb1c-49ca-9fc4-15eea1fb0d1d,2301,"North Franklin/Wades Nbnd","",37.13651,-80.4138,,,0,,,
8ef9117e-1a47-41e3-8278-ad947526b327,2206,"Arbor/Market Wbnd","",37.16882,-80.41959,,,0,,,
2ae2e5b8-77d7-402a-b1f9-8a093533324a,2101,"Republic/Salem Nbnd","",37.1372,-80.3962,,,0,,,
a097aefc-7502-4f7d-b0a1-8a896bb81a89,2104,"Depot/Cambria Wbnd","",37.14126,-80.40401,,,0,,,
9bf66771-95a3-42ac-bd6e-2d25ffb81483,2110,"Montgomery County Courthouse","",37.13073,-80.40774,,,0,,,
e87f31ba-c8e2-4edf-99df-4868f1a0116c,2109,"W Main/Dunkley Ebnd","",37.1283,-80.4106,,,0,,,
8ac8dcf5-9542-40b7-8402-89ea9e97282d,2112,"Recreation Center","",37.15034,-80.41492,,,0,,,
c1968049-806b-4ae5-8aae-7f03e8d42036,2108,"Depot/New Wbnd","",37.13081,-80.41461,,,0,,,
6e286f73-4d6d-4c15-9f1e-243766b058e7,2302,"North Franklin/Wades Sbnd","",37.13633,-80.41396,,,0,,,
392d24d7-3cf6-463f-82fd-e153813bc7ec,2111,"Roanoke/Evans Ebnd","",37.13015,-80.40209,,,0,,,
13579243-8177-4d1b-b077-15f0fa4081d0,2100,"Montgomery County Govt Center","",37.13143,-80.39332,,,0,,,
b50be089-6f81-42d2-aea5-dc440a1072a3,2131,"Roanoke/Roberts Ebnd","",37.13038,-80.39774,,,0,,,
f54cd2dc-e4b4-4875-9395-c8c332d26c5e,2144,"Hickory/W. Main Sbnd","",37.12244,-80.41732,,,0,,,
31c47d3a-016f-4a1f-b89b-fb6ec233e1a2,2150,"Wades/N. Franklin Wbnd","",37.13611,-80.41436,,,0,,,
8d8d85da-2cec-41db-ad99-e1d02b6f65e5,2148,"Clearview/Kamran Sbnd","",37.13274,-80.42048,,,0,,,
8c2fadf9-610b-45b5-a6d7-2e64e9222386,2146,"Clearview/Williams Sbnd","",37.12992,-80.41947,,,0,,,
7745a82f-d5bd-479c-ab57-7f59902ce63f,1626,"Main/Clay Nbnd","",37.22676,-80.41118,,,0,,,
40109c33-a657-4eb9-af32-7bfd4f0f43fc,2142,"Hickory/2nd Wbnd","",37.12055,-80.41518,,,0,,,
9758ca90-2bec-4e82-9c24-b393bcc968da,2140,"Carson/Mountainview Ebnd","",37.11918,-80.41359,,,0,,,
eda09e71-96ba-459c-af2f-68e8662d61b2,2138,"Highview/Mountainview Nbnd","",37.12224,-80.41146,,,0,,,
b55b505f-3914-46dd-839a-6f4b85e78902,1113,"Squires Wbnd","",37.22977,-80.4191,,,0,,,
29b283c5-37fe-41b4-8779-c657d0350321,1103,"West Campus/Perry Nbnd","",37.2289,-80.42745,,,0,,,
c3180d91-b092-4b9f-ac0e-53a5b8c614ef,1200,"Prices Fork/Old Glade Wbnd","",37.23149,-80.43459,,,0,,,
4bb094ee-f5f8-47d7-a3a5-4cdc1b3f86bc,2136,"Phlegar/2nd Nbnd","",37.12501,-80.40947,,,0,,,
674a20d8-1006-4633-a737-03080f3b319f,2134,"1st/Hickok Ebnd","",37.12799,-80.40902,,,0,,,
113f7558-20cf-4c9a-93d5-0a7f8e6de7b1,2211,"Stafford/Quinn W Stewart Blvd Nbnd","",37.16571,-80.43604,,,0,,,
4b62b3de-597e-4e40-9aa4-3354df29904d,1710,"Kraft/Research Ctr Ebnd","",37.19896,-80.40543,,,0,,,
7d6c678e-f8f8-4436-95f2-79ea11ce1957,2212,"Meadow/Stafford Wbnd","",37.16891,-80.43747,,,0,,,
973d76e3-9e31-4dcd-9f11-82276548c7ca,2213,"Meadow/Walters Wbnd","",37.16902,-80.44061,,,0,,,
7a5a0b6b-2f9b-4488-acc0-2852acc2d2d9,2214,"400 Walters Wbnd","",37.16663,-80.4418,,,0,,,
a5329def-1f9f-4de2-bd4c-2f9dc2464a35,2215,"Sequoia Circle/New Village Wbnd","",37.16959,-80.44435,,,0,,,
6031ffbf-86bc-49fb-8027-f1bc18402274,2217,"Majestic/Kays Dr Sbnd","",37.15861,-80.43491,,,0,,,
f6c8ec1f-e0b1-4920-9364-7537f8066114,2218,"Berkshire/Gibson Sbnd","",37.15378,-80.43159,,,0,,,
e2083514-fd41-4185-9864-70d278d3585c,2219,"Sleepy Hollow/Tarrytown Sbnd","",37.15075,-80.42818,,,0,,,
0edd3cce-b453-4e89-8914-5a2e341daef8,2220,"Providence/Cambria Nbnd","",37.1513,-80.42418,,,0,,,
187f65e4-240f-48bc-b3e3-6cbefafe1b42,2221,"Cambria/Henley Wbnd","",37.15229,-80.42844,,,0,,,
8bb3da2b-1ea2-4a38-8c98-16d203583b25,2222,"Gibson/Nancy Wbnd","",37.15467,-80.43059,,,0,,,
4bb19015-071f-44c6-96af-0fe8c8234553,2223,"Berkshire/Windsor Nbnd","",37.1543,-80.4325,,,0,,,
aae8b799-59b4-4529-8817-b8c8e378702b,2224,"Somerset/Majestic Ebnd","",37.16006,-80.43514,,,0,,,
b68442f1-c144-496c-9b38-fe996cd74732,1101,"Burruss Hall","",37.22849,-80.42284,,,0,,,
76be89e4-428a-4629-b2bb-05d6a1e7ad0a,1700,"Rec Fields Sbnd","",37.21484,-80.41835,,,0,,,
d803fee7-3ff7-4474-a52f-5736fdd53bed,1705,"Pratt Dr/Andrews Bldg Sbnd","",37.204,-80.41244,,,0,,,
87b75166-462e-4ee4-807b-579fee2b090e,1702,"Pratt/Kraft Ebnd","",37.20109,-80.41074,,,0,,,
75660c53-7160-46f8-936b-708a79b36790,2216,"New Village/Tula Circle Sbnd","",37.16584,-80.44585,,,0,,,
e7bf9a52-5f37-4575-a969-4d47e9e0d159,2225,"Crescent/Walnut Ebnd","",37.16176,-80.44459,,,0,,,
